X,Y,FID,Route,Direction,Sequence,Stop_ID,Stop_Abbre,Stop_Name,Latitude,Longitude,Sign_Up
-75.380614,39.9166260000001,1,101,Eastbound,8,1949,BOWSTAEA,Providence Rd Station,39.916626,-75.380614,Victory
-75.136358,39.968851,2,15,Eastbound,41,20978,GIRFROEA,Girard Av & Front St,39.968851,-75.136358,Callowhill
-75.345542,39.921159,3,101,Westbound,23,18607,THOSTASW,Thomson Av Station - FS,39.921159,-75.345542,Victory
-75.292841,39.931313,4,102,Eastbound,11,30376,BALSTANO,Baltimore Av Station - FS,39.931313,-75.292841,Victory
-75.210998,39.9685650000001,5,10,Westbound,20,20674,LANOGDNW,Lancaster Av & Ogden St,39.968565,-75.210998,Callowhill
-75.23675,39.976363,6,10,Westbound,31,20687,LAN58TWE,Lansdowne Av & 58th St,39.976363,-75.23675,Callowhill
-75.255994,39.9225660000001,7,13,Eastbound,5,20772,9THCEDNE,9th St & Cedar Av,39.922566,-75.255994,Elmwood
-75.238897,39.9286280000001,8,13,Eastbound,14,20782,65TCHEEA,65th St & Chester Av,39.928628,-75.238897,Elmwood
-75.206879,39.9485490000001,9,13,Westbound,11,20807,CHE42NWE,Chester Av & 42nd St,39.948549,-75.206879,Elmwood
-75.2399369999999,39.9459880000001,10,34,Westbound,30,20894,BAL58TWE,Baltimore Av & 58th St,39.945988,-75.239937,Elmwood
-75.212429,39.940794,11,36,Eastbound,34,20957,49TWOONW,49th St & Woodland Av,39.940794,-75.212429,Elmwood
-75.2390129999999,39.9160800000001,12,36,Eastbound,11,20934,ELM71SNE,Elmwood Av & 71st St,39.91608,-75.239013,Elmwood
-75.218521,39.9729780000001,13,15,Eastbound,11,21058,GIRLANEA,Girard Av & Lancaster Av,39.972978,-75.218521,Callowhill
-75.22579,39.9714730000001,14,15,Westbound,58,21033,GIR52NWE,Girard Av & 52nd St,39.971473,-75.22579,Callowhill
-75.101873,39.9833310000001,15,15,Eastbound,61,15044,ALLEMRSE,Allegheny Av & Emery St,39.983331,-75.101873,Callowhill
-75.1187869999999,39.9787420000001,16,15,Westbound,12,32301,ARAHU2SW,Aramingo Av & Huntingdon St - FS,39.978742,-75.118787,Callowhill
-75.391897,39.9183430000001,17,101,Westbound,35,18613,VETSTAWE,Veterans Square Station,39.918343,-75.391897,Victory
-75.11186,39.982428,18,15,Westbound,8,20982,RICCAMSW,Belgrade St & Cambria St - detour,39.982428,-75.11186,Callowhill
-75.257349,39.923621,19,13,Westbound,43,20838,10TMULSW,10th St & Mulberry Av,39.923621,-75.257349,Elmwood
-75.134485,39.964812,20,15,Eastbound,44,24039,FRADELSO,Frankford Av & Delaware Av,39.964812,-75.134485,Callowhill
-75.2097249999999,39.944537,21,36,Westbound,17,20739,WOO46TSW,Woodland Av & 46th St,39.944537,-75.209725,Elmwood
-75.292764,39.9470920000001,22,101,Westbound,11,1940,DRXSTASW,Drexel Hill Junction Station,39.947092,-75.292764,Victory
-75.229755,39.977129,23,10,Westbound,27,20683,LAN54TWE,Lansdowne Av & 54th St,39.977129,-75.229755,Callowhill
-75.189676,39.9548800000001,24,11,Westbound,6,20658,33MAWEU,33rd St Trolley Station,39.95488,-75.189676,Elmwood
-75.2218099999999,39.9343390000001,25,11,Eastbound,26,20720,WOO56TNE,Woodland Av & 56th St,39.934339,-75.22181,Elmwood
-75.2020209999999,39.9572590000001,26,13,Westbound,10,21248,40TMARSO,40th St & Market St,39.957259,-75.202021,Elmwood
-75.209154,39.949641,27,34,Westbound,14,20880,BAL43RWE,Baltimore Av & 43rd St,39.949641,-75.209154,Elmwood
-75.1653449999999,39.9526720000001,28,34,Westbound,2,20659,MA15WEU,15th St Trolley Station,39.952672,-75.165345,Elmwood
-75.20244,39.963151,29,10,Eastbound,26,20635,LAN40TSE,Lancaster Av & 40th St,39.963151,-75.20244,Callowhill
-75.2337459999999,39.9472460000001,30,34,Eastbound,20,20864,BAL55TNE,Baltimore Av & 55th St,39.947246,-75.233746,Elmwood
-75.171483,39.953425,31,11,Westbound,3,20660,MA19WEU,19th St Trolley Station,39.953425,-75.171483,Elmwood
-75.280973,39.910255,32,102,Westbound,25,2099,MACSTASE,MacDade Blvd Station,39.910255,-75.280973,Victory
-75.385524,39.917467,33,101,Westbound,31,18610,EDGSTAWE,Edgmont St Station,39.917467,-75.385524,Victory
-75.239319,39.8986680000001,34,36,Eastbound,1,612,EASLOOSO,Island Av & 80th St Eastwick Loop,39.898668,-75.239319,Elmwood
-75.11959,39.9759680000001,35,15,Eastbound,52,31796,THOCUMNE,Thompson St & Cumberland St - detour,39.975968,-75.11959,Callowhill
-75.244703,39.929565,36,13,Westbound,35,21209,65TCHSSW,Chester Av & 65th St - FS,39.929565,-75.244703,Elmwood
-75.246342,39.9439630000001,37,34,Eastbound,14,599,ANGLOOWE,Baltimore Av & 61st St Angora Loop,39.943963,-75.246342,Elmwood
-75.159594,39.9714280000001,38,15,Eastbound,33,352,GIRBROEA,Girard Av & Broad St,39.971428,-75.159594,Callowhill
-75.1897,39.954773,39,13,Eastbound,41,20642,33MAEAU,33rd St Trolley Station,39.954773,-75.1897,Elmwood
-75.219048,39.942349,40,13,Eastbound,29,20797,CHE51SNE,Chester Av & 51st St,39.942349,-75.219048,Elmwood
-75.29202,39.928653,41,102,Eastbound,10,30375,PENSTANO,Penn St Station,39.928653,-75.29202,Victory
-75.2192259999999,39.9299350000001,42,36,Eastbound,25,20948,ELM57TNE,Elmwood Av & 57th St,39.929935,-75.219226,Elmwood
-75.212665,39.940767,43,11,Eastbound,33,297,WOO49TNE,Woodland Av & 49th St,39.940767,-75.212665,Elmwood
-75.238965,39.916249,44,36,Westbound,40,20917,ELM71SSW,Elmwood Av & 71st St,39.916249,-75.238965,Elmwood
-75.2097249999999,39.944537,45,36,Westbound,13,20739,WOO46TSW,Woodland Av & 46th St,39.944537,-75.209725,Elmwood
-75.230316,39.9324790000001,46,13,Eastbound,19,20786,KIN60TNE,Kingsessing Av & 60th St,39.932479,-75.230316,Elmwood
-75.2393519999999,39.899525,47,36,Westbound,49,24738,ISLSUFSO,Island Av & Suffolk Av - MBFS,39.899525,-75.239352,Elmwood
-75.220184,39.941539,48,13,Eastbound,28,20796,CHE52NNE,Chester Av & 52nd St,39.941539,-75.220184,Elmwood
-75.24155,39.9073910000001,49,36,Westbound,47,20922,ISL76TSO,Island Av & 76th St,39.907391,-75.24155,Elmwood
-75.235519,39.946936,50,34,Westbound,28,20892,BAL56TWE,Baltimore Av & 56th St,39.946936,-75.235519,Elmwood
-75.240378,39.975851,51,10,Eastbound,8,15271,LAN60TEA,Lansdowne Av & 60th St,39.975851,-75.240378,Callowhill
-75.243216,39.970063,52,15,Eastbound,2,31443,GIR62NEA,Girard Av & 62nd St,39.970063,-75.243216,Callowhill
-75.2311109999999,39.947866,53,34,Eastbound,7,20890,BAL54TWE,Baltimore Av & 54th St,39.947866,-75.231111,Elmwood
-75.217711,39.9311730000001,54,36,Westbound,25,20902,ELM56TSW,Elmwood Av & 56th St,39.931173,-75.217711,Elmwood
-75.237763,39.9464310000001,55,34,Westbound,29,20893,BAL57TWE,Baltimore Av & 57th St,39.946431,-75.237763,Elmwood
-75.246661,39.980912,56,10,Eastbound,3,20611,63RLEBSO,63rd St & Lebanon Av,39.980912,-75.246661,Callowhill
-75.248915,39.916451,57,11,Westbound,39,20761,MAIFROWE,Main St & Front St,39.916451,-75.248915,Elmwood
-75.1941619999999,39.955335,58,10,Eastbound,32,20641,36TPORSO,36th St Trolley Portal Station,39.955335,-75.194162,Callowhill
-75.171637,39.9533270000001,59,13,Eastbound,44,20646,MA19EAU,19th St Trolley Station,39.953327,-75.171637,Elmwood
-75.209797,39.944323,60,36,Eastbound,37,20727,WOO46TNE,Woodland Av & 46th St,39.944323,-75.209797,Elmwood
-75.279101,39.953092,61,102,Westbound,7,15322,CONSTASW,Congress Av Station - FS,39.953092,-75.279101,Victory
-75.1343419999999,39.965205,62,15,Westbound,22,31289,FRADELNO,Frankford Av & Delaware Av - FS,39.965205,-75.134342,Callowhill
-75.235249,39.976522,63,10,Westbound,30,20686,LAN57TWE,Lansdowne Av & 57th St,39.976522,-75.235249,Callowhill
-75.2929119999999,39.9312330000001,64,102,Westbound,16,1959,BALSTASO,Baltimore Av Station,39.931233,-75.292912,Victory
-75.279078,39.952976,65,101,Eastbound,30,15344,CONSTANE,Congress Av Station,39.952976,-75.279078,Victory
-75.286772,39.949915,66,102,Westbound,9,18600,DRESTASW,Drexel Park Station,39.949915,-75.286772,Victory
-75.211652,39.9399800000001,67,36,Westbound,20,20897,49TPASSE,49th St & Paschall Av,39.93998,-75.211652,Elmwood
-75.28675,39.9194190000001,68,102,Eastbound,6,18843,MAGSTANO,Magnolia Av Station,39.919419,-75.28675,Victory
-75.241725,39.975809,69,10,Westbound,34,20690,LAN61SWE,Lansdowne Av & 61st St,39.975809,-75.241725,Callowhill
-75.225266,39.9478300000001,70,34,Eastbound,4,20887,BAL51TWE,Baltimore Av & 51st St,39.94783,-75.225266,Elmwood
-75.246184,39.97835,71,10,Eastbound,4,20612,63RJEFSO,63rd St & Jefferson St,39.97835,-75.246184,Callowhill
-75.203333,39.9495950000001,72,34,Westbound,10,301,40TPORSW,40th St Trolley Portal,39.949595,-75.203333,Elmwood
-75.2740659999999,39.9553260000001,73,102,Eastbound,21,18630,BEVSTANE,Beverly Blvd Station,39.955326,-75.274066,Victory
-75.239319,39.8986680000001,74,36,Westbound,50,612,EASLOOSO,Island Av & 80th St Eastwick Loop,39.898668,-75.239319,Elmwood
-75.134154,39.9649450000001,75,15,Westbound,21,31347,FRADELNW,Frankford Av & Delaware Av Loop,39.964945,-75.134154,Callowhill
-75.2155319999999,39.9334000000001,76,36,Eastbound,28,20951,LIN54TNE,Lindbergh Blvd & 54th St,39.9334,-75.215532,Elmwood
-75.211716,39.9421760000001,77,11,Westbound,14,20740,WOO48TSW,Woodland Av & 48th St,39.942176,-75.211716,Elmwood
-75.2246729999999,39.932309,78,11,Eastbound,24,20718,WOO58TNE,Woodland Av & 58th St,39.932309,-75.224673,Elmwood
-75.2623169999999,39.91904,79,13,Eastbound,1,305,DARTRA1,Darby Transportation Center - trolley,39.91904,-75.262317,Elmwood
-75.134351,39.9687740000001,80,15,Westbound,24,481,FRAGIRNO,Frankford Av & Girard Av,39.968774,-75.134351,Callowhill
-75.211403,39.9478780000001,81,13,Westbound,13,20809,CHE45TSW,Chester Av & 45th St,39.947878,-75.211403,Elmwood
-75.2286139999999,39.971165,82,15,Westbound,59,21035,GIR54TWE,Girard Av & 54th St,39.971165,-75.228614,Callowhill
-75.241899,39.9451970000001,83,34,Eastbound,16,20860,BAL59TNE,Baltimore Av & 59th St,39.945197,-75.241899,Elmwood
-75.1258329999999,39.971869,84,15,Westbound,15,20986,GIRBERWE,Girard Av & Berks St,39.971869,-75.125833,Callowhill
-75.220586,39.9289640000001,85,36,Eastbound,24,20947,ELM58TNE,Elmwood Av & 58th St,39.928964,-75.220586,Elmwood
-75.259689,39.962161,86,102,Westbound,1,15497,69THWEST,69th St Transportation Center West Terminal,39.962161,-75.259689,Victory
-75.217035,39.972244,87,10,Westbound,23,290,LAN48TNW,Lancaster Av & 48th St,39.972244,-75.217035,Callowhill
-75.141386,39.9697990000001,88,15,Westbound,27,20994,GIR3RDWE,Girard Av & 3rd St,39.969799,-75.141386,Callowhill
-75.189676,39.9548800000001,89,36,Westbound,6,20658,33MAWEU,33rd St Trolley Station,39.95488,-75.189676,Elmwood
-75.2219939999999,39.9280390000001,90,36,Eastbound,23,20946,ELM59TNE,Elmwood Av & 59th St,39.928039,-75.221994,Elmwood
-75.1124389999999,39.979726,91,15,Eastbound,55,21109,RICSOMNE,Thompson St & Somerset St - detour,39.979726,-75.112439,Callowhill
-75.2292869999999,39.929041,92,11,Eastbound,22,20717,WOO61SNE,Woodland Av & 61st St,39.929041,-75.229287,Elmwood
-75.194722,39.9538900000001,93,34,Westbound,7,20733,36SASOU,36th St Trolley Station,39.95389,-75.194722,Elmwood
-75.2125819999999,39.940955,94,11,Westbound,15,302,WOO49TSW,Woodland Av & 49th St,39.940955,-75.212582,Elmwood
-75.260545,39.919921,95,13,Eastbound,2,20768,9THRIDNE,9th St & Ridge Av,39.919921,-75.260545,Elmwood
-75.218947,39.9364850000001,96,11,Westbound,20,20744,WOO54TSW,Woodland Av & 54th St,39.936485,-75.218947,Elmwood
-75.2887049999999,39.9216430000001,97,102,Westbound,20,12048,PRRSTASE,Providence Rd Station,39.921643,-75.288705,Victory
-75.2842219999999,39.9146050000001,98,102,Westbound,23,4726,BARSTASE,Bartram Av Station,39.914605,-75.284222,Victory
-75.2161149999999,39.9715550000001,99,10,Eastbound,20,20628,LAN47TSE,Lancaster Av & 47th St,39.971555,-75.216115,Callowhill
-75.263141,39.9201210000001,100,13,Westbound,47,30866,10TMAISW,10th St & Main St,39.920121,-75.263141,Elmwood
-75.3877659999999,39.9175920000001,101,101,Eastbound,5,15380,MONSTAEA,Monroe St Station,39.917592,-75.387766,Victory
-75.134492,39.966124,102,15,Westbound,19,24038,FRARICSO,Frankford Av & Richmond St,39.966124,-75.134492,Callowhill
-75.219464,39.9737030000001,103,10,Westbound,24,20678,LAN49TNW,Lancaster Av & 49th St,39.973703,-75.219464,Callowhill
-75.231399,39.933632,104,13,Eastbound,20,20787,60TCHENW,60th St & Chester Av,39.933632,-75.231399,Elmwood
-75.197016,39.960267,105,10,Eastbound,29,20638,LAN38TSE,Lancaster Av & 38th St,39.960267,-75.197016,Callowhill
-75.1897,39.954773,106,36,Eastbound,44,20642,33MAEAU,33rd St Trolley Station,39.954773,-75.1897,Elmwood
-75.114842,39.9784730000001,107,15,Eastbound,54,21108,RICLEHNE,Thompson St & Lehigh Avt - detour,39.978473,-75.114842,Callowhill
-75.241879,39.975693,108,10,Eastbound,7,20615,LAN61SEA,Lansdowne Av & 61st St,39.975693,-75.241879,Callowhill
-75.183169,39.954894,109,13,Westbound,5,20662,MA30WEU,30th St Trolley Station,39.954894,-75.183169,Elmwood
-75.128519,39.9708400000001,110,15,Eastbound,49,21101,GIRPALNE,Girard Av & Palmer St,39.97084,-75.128519,Callowhill
-75.279101,39.953092,111,101,Westbound,7,15322,CONSTASW,Congress Av Station - FS,39.953092,-75.279101,Victory
-75.213848,39.940064,112,11,Westbound,16,317,WOO50TSW,Woodland Av & 50th St,39.940064,-75.213848,Elmwood
-75.285408,39.9175960000001,113,102,Eastbound,5,1964,NORSTANO,North St Station - MBFS,39.917596,-75.285408,Victory
-75.288575,39.9217770000001,114,102,Eastbound,7,18844,PROSTANO,Providence Rd Station - FS,39.921777,-75.288575,Victory
-75.249045,39.92576,115,13,Westbound,38,20833,CHEDUNSW,Chester Av & Duncan Av,39.92576,-75.249045,Elmwood
-75.288982,39.9488640000001,116,102,Westbound,10,18601,IRVSTASW,Irvington Rd Station,39.948864,-75.288982,Victory
-75.2139069999999,39.9398860000001,117,11,Eastbound,32,20725,WOO50TNE,Woodland Av & 50th St,39.939886,-75.213907,Elmwood
-75.162559,39.9525320000001,118,13,Eastbound,46,283,JUNSTANO,13th St Trolley Station,39.952532,-75.162559,Elmwood
-75.225456,39.9477150000001,119,34,Eastbound,24,20868,BAL51SEA,Baltimore Av & 51st St,39.947715,-75.225456,Elmwood
-75.211092,39.949332,120,34,Westbound,15,20881,BAL44TWE,Baltimore Av & 44th St,39.949332,-75.211092,Elmwood
-75.194218,39.956281,121,10,Eastbound,31,20640,36TMARSO,36th St & Market St,39.956281,-75.194218,Callowhill
-75.392145,39.918209,122,101,Eastbound,2,18615,VETSTAEA,Veterans Square Station,39.918209,-75.392145,Victory
-75.2330469999999,39.9265570000001,123,11,Westbound,29,20752,WOO64TSW,Woodland Av & 64th St,39.926557,-75.233047,Elmwood
-75.134154,39.9649450000001,124,15,Eastbound,45,31347,FRADELNW,Frankford Av & Delaware Av Loop,39.964945,-75.134154,Callowhill
-75.243077,39.919361,125,11,Eastbound,12,20706,WOO71SNE,Woodland Av & 71st St,39.919361,-75.243077,Elmwood
-75.2354129999999,39.929069,126,13,Westbound,31,324,KINCEMSW,Kingsessing Av & Cemetery Av - Mt Moriah Loop,39.929069,-75.235413,Elmwood
-75.162605,39.971908,127,15,Westbound,35,21005,GIR16TWE,Girard Av & 16th St,39.971908,-75.162605,Callowhill
-75.1999519999999,39.9619230000001,128,10,Westbound,13,20668,LANSPRNW,Lancaster Av & Spring Garden St,39.961923,-75.199952,Callowhill
-75.232386,39.931045,129,13,Eastbound,18,20784,KIN61SNE,Kingsessing Av & 61st St,39.931045,-75.232386,Elmwood
-75.171483,39.953425,130,13,Westbound,3,20660,MA19WEU,19th St Trolley Station,39.953425,-75.171483,Elmwood
-75.2091349999999,39.948356,131,13,Eastbound,35,20801,CHE43REA,Chester Av & 43rd St,39.948356,-75.209135,Elmwood
-75.168874,39.972715,132,15,Westbound,39,21009,GIR20TWE,Girard Av & 20th St,39.972715,-75.168874,Callowhill
-75.197306,39.9510480000001,133,11,Westbound,8,20734,SP37SWU,37th St Trolley Station,39.951048,-75.197306,Elmwood
-75.278314,39.9066730000001,134,102,Eastbound,1,20431,SHASTA,Sharon Hill Station,39.906673,-75.278314,Victory
-75.2976879999999,39.94741,135,101,Eastbound,25,15376,HUESTASE,Huey Av Station,39.94741,-75.297688,Victory
-75.178733,39.973976,136,15,Westbound,43,21016,GIR26TWE,Girard Av & 26th St,39.973976,-75.178733,Callowhill
-75.2546129999999,39.9175040000001,137,11,Eastbound,5,20699,MAI5THEA,Main St & 5th St,39.917504,-75.254613,Elmwood
-75.231466,39.947742,138,34,Westbound,40,20865,BAL54TEA,Baltimore Av & 54th St,39.947742,-75.231466,Elmwood
-75.1835,39.9548150000001,139,13,Eastbound,42,20643,MA30EAU,30th St Trolley Station,39.954815,-75.1835,Elmwood
-75.205386,39.9651020000001,140,10,Westbound,17,20671,LAN41SNW,Lancaster Av & 41st St,39.965102,-75.205386,Callowhill
-75.1653449999999,39.9526720000001,141,11,Westbound,2,20659,MA15WEU,15th St Trolley Station,39.952672,-75.165345,Elmwood
-75.230765,39.9280170000001,142,11,Eastbound,21,20715,WOO62NNE,Woodland Av & 62nd St,39.928017,-75.230765,Elmwood
-75.259689,39.962161,143,101,Eastbound,36,15497,69THWEST,69th St Transportation Center West Terminal,39.962161,-75.259689,Victory
-75.1835,39.9548150000001,144,11,Eastbound,44,20643,MA30EAU,30th St Trolley Station,39.954815,-75.1835,Elmwood
-75.234425,39.91925,145,36,Eastbound,14,20937,ELM68TNE,Elmwood Av & 68th St,39.91925,-75.234425,Elmwood
-75.2102389999999,39.938559,146,36,Eastbound,32,21201,GRA49TNE,Grays Av & 49th St,39.938559,-75.210239,Elmwood
-75.2279119999999,39.947727,147,34,Eastbound,23,20867,BALBROEA,Baltimore Av & Broomall St,39.947727,-75.227912,Elmwood
-75.2311109999999,39.947866,148,34,Westbound,26,20890,BAL54TWE,Baltimore Av & 54th St,39.947866,-75.231111,Elmwood
-75.1835,39.9548150000001,149,10,Eastbound,35,20643,MA30EAU,30th St Trolley Station,39.954815,-75.1835,Callowhill
-75.225625,39.937871,150,13,Westbound,23,20819,CHE56TSW,Chester Av & 56th St,39.937871,-75.225625,Elmwood
-75.2506989999999,39.9252450000001,151,13,Westbound,39,20834,CHESTESW,Chester Av & Stetser Av,39.925245,-75.250699,Elmwood
-75.281832,39.911684,152,102,Eastbound,3,15334,ANDAVNO,Andrews Av Station - FS,39.911684,-75.281832,Victory
-75.171637,39.9533270000001,153,34,Eastbound,44,20646,MA19EAU,19th St Trolley Station,39.953327,-75.171637,Elmwood
-75.2069069999999,39.946987,154,11,Westbound,11,20736,WOO42NSW,Woodland Av & 42nd St,39.946987,-75.206907,Elmwood
-75.116595,39.9775670000001,155,15,Eastbound,53,21107,RICHUNNE,Thompson St & Huntingdon St - detour,39.977567,-75.116595,Callowhill
-75.170421,39.9728170000001,156,15,Eastbound,27,21078,GIRCOREA,Girard Av & Corinthian Av,39.972817,-75.170421,Callowhill
-75.2164309999999,39.972725,157,15,Eastbound,12,30605,GIRMEREA,Girard Av & Merion Av,39.972725,-75.216431,Callowhill
-75.2069069999999,39.946987,158,36,Westbound,11,20736,WOO42NSW,Woodland Av & 42nd St,39.946987,-75.206907,Elmwood
-75.1226819999999,39.974093,159,15,Westbound,14,17788,ARANOTSW,Aramingo Av & Norris St,39.974093,-75.122682,Callowhill
-75.212429,39.940794,160,34,Eastbound,1,20957,49TWOONW,49th St & Woodland Av,39.940794,-75.212429,Elmwood
-75.369922,39.9148720000001,161,101,Eastbound,10,15366,PINSTAEA,Pine Ridge Station,39.914872,-75.369922,Victory
-75.2558519999999,39.9177910000001,162,11,Eastbound,4,20698,MAI6THEA,Main St & 6th St,39.917791,-75.255852,Elmwood
-75.1542219999999,39.9707560000001,163,15,Eastbound,35,21087,GIR11TEA,Girard Av & 11th St,39.970756,-75.154222,Callowhill
-75.292008,39.9289380000001,164,102,Westbound,17,15329,PENSTASO,Penn St Station,39.928938,-75.292008,Victory
-75.240037,39.9216410000001,165,11,Westbound,34,20757,WOO69TSW,Woodland Av & 69th St,39.921641,-75.240037,Elmwood
-75.2869489999999,39.949709,166,101,Eastbound,28,18629,DRESTANE,Drexel Park Station,39.949709,-75.286949,Victory
-75.171483,39.953425,167,36,Westbound,3,20660,MA19WEU,19th St Trolley Station,39.953425,-75.171483,Elmwood
-75.217681,39.937242,168,11,Eastbound,29,21208,WOO53RNE,Woodland Av & 53rd St,39.937242,-75.217681,Elmwood
-75.2399369999999,39.9459880000001,169,34,Eastbound,11,20894,BAL58TWE,Baltimore Av & 58th St,39.945988,-75.239937,Elmwood
-75.244322,39.944468,170,34,Eastbound,13,20896,BAL60TWE,Baltimore Av & 60th St,39.944468,-75.244322,Elmwood
-75.175844,39.972453,171,15,Westbound,41,30791,GIR24HSW,Girard Av & 24th St,39.972453,-75.175844,Callowhill
-75.339624,39.9246440000001,172,101,Eastbound,15,1952,WOOSTANE,Woodland Av Station - FS,39.924644,-75.339624,Victory
-75.223289,39.933297,173,11,Eastbound,25,20719,WOO57TNE,Woodland Av & 57th St,39.933297,-75.223289,Elmwood
-75.1653689999999,39.952502,174,34,Eastbound,45,31140,MA15EAU,15th St Trolley Station,39.952502,-75.165369,Elmwood
-75.183169,39.954894,175,36,Westbound,5,20662,MA30WEU,30th St Trolley Station,39.954894,-75.183169,Elmwood
-75.364681,39.9158330000001,176,101,Westbound,26,1945,96WE,96 Signal - not a stop,39.915833,-75.364681,Victory
-75.329458,39.9344090000001,177,101,Eastbound,18,18623,SPRSTANE,Springfield Rd Station - FS,39.934409,-75.329458,Victory
-75.1540209999999,39.9708450000001,178,15,Westbound,32,21001,GIR11TWE,Girard Av & 11th St,39.970845,-75.154021,Callowhill
-75.101401,39.983071,179,15,Westbound,2,12196,RICALLSW,Richmond St & Allegheny Av,39.983071,-75.101401,Callowhill
-75.2623169999999,39.91904,180,11,Eastbound,1,305,DARTRA1,Darby Transportation Center - trolley,39.91904,-75.262317,Elmwood
-75.1835,39.9548150000001,181,34,Eastbound,42,20643,MA30EAU,30th St Trolley Station,39.954815,-75.1835,Elmwood
-75.2276419999999,39.930217,182,11,Eastbound,23,20716,WOO60TNE,Woodland Av & 60th St,39.930217,-75.227642,Elmwood
-75.2139069999999,39.9398860000001,183,34,Eastbound,2,20725,WOO50TNE,Woodland Av & 50th St,39.939886,-75.213907,Elmwood
-75.263613,39.9608640000001,184,102,Eastbound,25,15348,FAISTANE,Fairfield Av Station,39.960864,-75.263613,Victory
-75.108757,39.984063,185,15,Westbound,6,20980,RICINDSW,Belgrade St & Indiana Av - detour,39.984063,-75.108757,Callowhill
-75.241816,39.9141290000001,186,36,Eastbound,9,20932,ELM73RNE,Elmwood Av & 73rd St,39.914129,-75.241816,Elmwood
-75.2412209999999,39.9698010000001,187,15,Eastbound,3,21047,GIR61SEA,Girard Av & 61st St,39.969801,-75.241221,Callowhill
-75.203333,39.949533,188,34,Eastbound,37,20804,40TPORNE,40th St Trolley Portal,39.949533,-75.203333,Elmwood
-75.245957,39.983838,189,10,Eastbound,1,31294,MALLOOSW,Malvern Av & 63rd St Loop - 2 onsite,39.983838,-75.245957,Callowhill
-75.224301,39.938654,190,13,Eastbound,25,20793,CHE55TNE,Chester Av & 55th St,39.938654,-75.224301,Elmwood
-75.2093199999999,39.9494810000001,191,34,Eastbound,33,20875,BAL43REA,Baltimore Av & 43rd St,39.949481,-75.20932,Elmwood
-75.1653689999999,39.952502,192,11,Eastbound,47,31140,MA15EAU,15th St Trolley Station,39.952502,-75.165369,Elmwood
-75.223377,39.9478720000001,193,34,Eastbound,25,20869,BAL50TEA,Baltimore Av & 50th St,39.947872,-75.223377,Elmwood
-75.234096,39.970585,194,15,Westbound,61,21038,GIR57TWE,Girard Av & 57th St,39.970585,-75.234096,Callowhill
-75.2386529999999,39.976054,195,10,Eastbound,9,20616,LAN59TEA,Lansdowne Av & 59th St,39.976054,-75.238653,Callowhill
-75.2315869999999,39.9212360000001,196,36,Eastbound,16,20939,ELM66TNE,Elmwood Av & 66th St,39.921236,-75.231587,Elmwood
-75.242958,39.919584,197,11,Westbound,36,20759,WOO71SSW,Woodland Av & 71st St,39.919584,-75.242958,Elmwood
-75.2150609999999,39.948786,198,34,Eastbound,30,20872,BAL46TEA,Baltimore Av & 46th St,39.948786,-75.215061,Elmwood
-75.249175,39.925617,199,13,Eastbound,9,20776,CHEDUNNE,Chester Av & Duncan Av,39.925617,-75.249175,Elmwood
-75.221109,39.9482610000001,200,34,Westbound,20,601,BAL49TWE,Baltimore Av & 49th St,39.948261,-75.221109,Elmwood
-75.237452,39.91713,201,36,Eastbound,12,20935,ELM70TNE,Elmwood Av & 70th St,39.91713,-75.237452,Elmwood
-75.1897,39.954773,202,34,Eastbound,41,20642,33MAEAU,33rd St Trolley Station,39.954773,-75.1897,Elmwood
-75.164352,39.9720280000001,203,15,Eastbound,31,21082,GIR17TEA,Girard Av & 17th St,39.972028,-75.164352,Callowhill
-75.227187,39.9366420000001,204,13,Eastbound,23,20791,CHE57TNE,Chester Av & 57th St,39.936642,-75.227187,Elmwood
-75.18028,39.974202,205,15,Westbound,44,21017,GIR27TWE,Girard Av & 27th St,39.974202,-75.18028,Callowhill
-75.194533,39.953854,206,11,Eastbound,42,20732,36SANOU,36th St Trolley Station,39.953854,-75.194533,Elmwood
-75.2020209999999,39.9572590000001,207,36,Eastbound,41,21248,40TMARSO,40th St & Market St,39.957259,-75.202021,Elmwood
-75.2279119999999,39.947727,208,34,Westbound,42,20867,BALBROEA,Baltimore Av & Broomall St,39.947727,-75.227912,Elmwood
-75.3488849999999,39.9182780000001,209,101,Westbound,24,1944,SPMSTASW,Springfield Mall Station,39.918278,-75.348885,Victory
-75.2336069999999,39.976707,210,10,Westbound,29,20685,LAN56TWE,Lansdowne Av & 56th St,39.976707,-75.233607,Callowhill
-75.242642,39.9140150000001,211,36,Eastbound,8,611,ELMLOOWE,Elmwood Loop,39.914015,-75.242642,Elmwood
-75.2128279999999,39.949148,212,34,Westbound,16,20882,BAL45TWE,Baltimore Av & 45th St,39.949148,-75.212828,Elmwood
-75.229944,39.9347540000001,213,13,Eastbound,21,20788,CHE59TNE,Chester Av & 59th St,39.934754,-75.229944,Elmwood
-75.247486,39.92607,214,13,Eastbound,10,20777,CHEYEAEA,Chester Av & Yeadon Av,39.92607,-75.247486,Elmwood
-75.21701,39.9486910000001,215,34,Westbound,18,20884,BAL47TWE,Baltimore Av & 47th St,39.948691,-75.21701,Elmwood
-75.2525419999999,39.9245250000001,216,13,Eastbound,7,20774,CHEYEANE,Chester Av & Allen Dr Yeadon Loop,39.924525,-75.252542,Elmwood
-75.219054,39.936262,217,11,Eastbound,28,20722,WOO54TNE,Woodland Av & 54th St,39.936262,-75.219054,Elmwood
-75.194722,39.9538900000001,218,36,Westbound,7,20733,36SASOU,36th St Trolley Station,39.95389,-75.194722,Elmwood
-75.240461,39.904257,219,36,Eastbound,3,20927,ISLLINNW,Island Av & Lindbergh Blvd - FS,39.904257,-75.240461,Elmwood
-75.1767359999999,39.953962,220,13,Eastbound,43,20645,MA22EAU,22nd St Trolley Station,39.953962,-75.176736,Elmwood
-75.227163,39.9368020000001,221,13,Westbound,24,20820,CHE57TSW,Chester Av & 57th St,39.936802,-75.227163,Elmwood
-75.162559,39.9525320000001,222,10,Eastbound,39,283,JUNSTANO,13th St Trolley Station,39.952532,-75.162559,Callowhill
-75.176571,39.954051,223,11,Westbound,4,20661,MA22WEU,22nd St Trolley Station,39.954051,-75.176571,Elmwood
-75.139805,39.9694390000001,224,15,Eastbound,40,21096,GIR2NDEA,Girard Av & 2nd St,39.969439,-75.139805,Callowhill
-75.2727179999999,39.955967,225,102,Eastbound,22,18631,HILSTANE,Hilltop Rd Station - FS,39.955967,-75.272718,Victory
-75.2190639999999,39.972917,226,15,Westbound,56,21030,GIR49TWE,Girard Av & 49th St,39.972917,-75.219064,Callowhill
-75.223745,39.971845,227,15,Eastbound,10,21056,GIR51SEA,Girard Av & 51st St,39.971845,-75.223745,Callowhill
-75.2404079999999,39.9151000000001,228,36,Eastbound,10,20933,ELM72NNE,Elmwood Av & 72nd St,39.9151,-75.240408,Elmwood
-75.236904,39.976248,229,10,Eastbound,10,20617,LAN58TEA,Lansdowne Av & 58th St,39.976248,-75.236904,Callowhill
-75.180504,39.974113,230,15,Eastbound,22,21070,GIR27TEA,Girard Av & 27th St,39.974113,-75.180504,Callowhill
-75.274822,39.955095,231,102,Westbound,6,18599,BEVSTASW,Beverly Blvd Station - FS,39.955095,-75.274822,Victory
-75.2020209999999,39.9572590000001,232,34,Westbound,11,21248,40TMARSO,40th St & Market St,39.957259,-75.202021,Elmwood
-75.210839,39.943245,233,36,Eastbound,36,20958,WOO47TNE,Woodland Av & 47th St,39.943245,-75.210839,Elmwood
-75.1653689999999,39.952502,234,13,Eastbound,45,31140,MA15EAU,15th St Trolley Station,39.952502,-75.165369,Elmwood
-75.134244,39.9688550000001,235,15,Eastbound,47,21098,GIRFRAEA,Girard Av & Frankford Av- FS,39.968855,-75.134244,Callowhill
-75.1429679999999,39.96999,236,15,Westbound,28,20995,GIR4THWE,Girard Av & 4th St,39.96999,-75.142968,Callowhill
-75.391165,39.9180660000001,237,101,Eastbound,3,18616,OLISTAEA,Olive St Station,39.918066,-75.391165,Victory
-75.296544,39.9401350000001,238,102,Westbound,14,15327,MARSTASO,Marshall Rd Station,39.940135,-75.296544,Victory
-75.208945,39.9484810000001,239,13,Westbound,12,20808,CHE43RWE,Chester Av & 43rd St,39.948481,-75.208945,Elmwood
-75.2542789999999,39.9236970000001,240,13,Eastbound,6,20773,CHEALDNE,Chester Av & Alfred Av,39.923697,-75.254279,Elmwood
-75.2824219999999,39.951694,241,102,Westbound,8,1939,LANSTASW,Lansdowne Av Station - FS,39.951694,-75.282422,Victory
-75.212283,39.9693530000001,242,10,Westbound,21,20675,LANWESNW,Lancaster Av & Westminster St,39.969353,-75.212283,Callowhill
-75.241732,39.9143350000001,243,34,Westbound,48,610,ELM73RSW,Elmwood Av & 73rd St,39.914335,-75.241732,Elmwood
-75.2065279999999,39.973823,244,15,Eastbound,15,21062,GIR41SEA,Girard Av & 41st St,39.973823,-75.206528,Callowhill
-75.196586,39.950993,245,13,Eastbound,39,20731,SP37NEU,37th St Trolley Station,39.950993,-75.196586,Elmwood
-75.2964459999999,39.9421960000001,246,102,Eastbound,14,18846,DRESTANO,Drexel Manor Station - MBNS,39.942196,-75.296446,Victory
-75.228572,39.9356530000001,247,13,Eastbound,22,320,CHE58TNE,Chester Av & 58th St,39.935653,-75.228572,Elmwood
-75.3373779999999,39.926338,248,101,Westbound,21,18614,LEASTASW,Leamy Av Station,39.926338,-75.337378,Victory
-75.258866,39.921142,249,13,Eastbound,3,20770,9THSUMNE,9th St & Summit Av,39.921142,-75.258866,Elmwood
-75.205564,39.965093,250,10,Eastbound,25,20634,LAN41SSE,Lancaster Av & 41st St,39.965093,-75.205564,Callowhill
-75.216214,39.938408,251,11,Westbound,18,20742,WOO52NSW,Woodland Av & 52nd St,39.938408,-75.216214,Elmwood
-75.231466,39.947742,252,34,Eastbound,21,20865,BAL54TEA,Baltimore Av & 54th St,39.947742,-75.231466,Elmwood
-75.2606079999999,39.9182440000001,253,11,Westbound,46,25241,MAIPOWWE,Main St & Powell Av,39.918244,-75.260608,Elmwood
-75.194533,39.953854,254,13,Eastbound,40,20732,36SANOU,36th St Trolley Station,39.953854,-75.194533,Elmwood
-75.241732,39.9143350000001,255,36,Westbound,42,610,ELM73RSW,Elmwood Av & 73rd St,39.914335,-75.241732,Elmwood
-75.2045429999999,39.974159,256,15,Westbound,51,344,GIR40TWE,Girard Av & 40th St - FS,39.974159,-75.204543,Callowhill
-75.134493,39.96865,257,15,Westbound,18,31540,FRAGI2SO,Frankford Av & Girard Av - FS,39.96865,-75.134493,Callowhill
-75.2259079999999,39.9713570000001,258,15,Eastbound,9,21055,GIR52NEA,Girard Av & 52nd St,39.971357,-75.225908,Callowhill
-75.216622,39.944041,259,13,Eastbound,30,321,CHE49TNE,Chester Av & 49th St,39.944041,-75.216622,Elmwood
-75.213399,39.9361630000001,260,36,Eastbound,30,20953,GRA52NNE,Grays Av & 52nd St,39.936163,-75.213399,Elmwood
-75.3645979999999,39.9156810000001,261,101,Eastbound,11,1950,96EA,96 Signal - not a stop,39.915681,-75.364598,Victory
-75.245957,39.983838,262,10,Westbound,39,31294,MALLOOSW,Malvern Av & 63rd St Loop - 2 onsite,39.983838,-75.245957,Callowhill
-75.194533,39.953854,263,36,Eastbound,43,20732,36SANOU,36th St Trolley Station,39.953854,-75.194533,Elmwood
-75.2217029999999,39.9345530000001,264,11,Westbound,22,20746,WOO56TSW,Woodland Av & 56th St,39.934553,-75.221703,Elmwood
-75.2326669999999,39.9706360000001,265,15,Eastbound,7,21051,GIR56TEA,Girard Av & 56th St,39.970636,-75.232667,Callowhill
-75.2344009999999,39.919446,266,36,Westbound,37,20914,ELM68TSW,Elmwood Av & 68th St,39.919446,-75.234401,Elmwood
-75.231704,39.976927,267,10,Westbound,28,20684,LAN55TWE,Lansdowne Av & 55th St,39.976927,-75.231704,Callowhill
-75.258471,39.923096,268,13,Westbound,44,20839,10TWYCSW,10th St & Wycombe Av,39.923096,-75.258471,Elmwood
-75.3875179999999,39.9177260000001,269,101,Westbound,32,15379,MONSTAWE,Monroe St Station,39.917726,-75.387518,Victory
-75.201901,39.957929,270,10,Westbound,15,279,40TFILSO,40th St & Filbert St,39.957929,-75.201901,Callowhill
-75.224253,39.938832,271,13,Westbound,22,20818,CHE55TSW,Chester Av & 55th St,39.938832,-75.224253,Elmwood
-75.246245,39.917304,272,11,Westbound,38,304,WOOISLSW,Woodland Av & Island Av,39.917304,-75.246245,Elmwood
-75.3700039999999,39.9150240000001,273,101,Westbound,27,15358,PINSTAWE,Pine Ridge Station - FS,39.915024,-75.370004,Victory
-75.221485,39.9407640000001,274,13,Westbound,20,20816,CHE53RSW,Chester Av & 53rd St,39.940764,-75.221485,Elmwood
-75.212227,39.937188,275,36,Westbound,21,30595,GRA51SSW,Grays Av & 51st St,39.937188,-75.212227,Elmwood
-75.1897,39.954773,276,11,Eastbound,43,20642,33MAEAU,33rd St Trolley Station,39.954773,-75.1897,Elmwood
-75.295958,39.944052,277,102,Westbound,12,15325,GARSTASO,Garrettford Station - FS,39.944052,-75.295958,Victory
-75.380567,39.9167860000001,278,101,Westbound,29,1946,BOWSTAWE,Providence Rd Station,39.916786,-75.380567,Victory
-75.171637,39.9533270000001,279,11,Eastbound,46,20646,MA19EAU,19th St Trolley Station,39.953327,-75.171637,Elmwood
-75.259689,39.962161,280,101,Westbound,1,15497,69THWEST,69th St Transportation Center West Terminal,39.962161,-75.259689,Victory
-75.2277779999999,39.923934,281,36,Eastbound,19,20942,ELM63RNE,Elmwood Av & 63rd St,39.923934,-75.227778,Elmwood
-75.166572,39.9723090000001,282,15,Eastbound,30,21081,GIRRIDEA,Girard Av & Ridge Av,39.972309,-75.166572,Callowhill
-75.251841,39.916866,283,11,Eastbound,7,20701,MAI3RDEA,Main St & 3rd St,39.916866,-75.251841,Elmwood
-75.223218,39.9334850000001,284,11,Westbound,23,20747,WOO57TSW,Woodland Av & 57th St,39.933485,-75.223218,Elmwood
-75.162559,39.9525320000001,285,34,Eastbound,46,283,JUNSTANO,13th St Trolley Station,39.952532,-75.162559,Elmwood
-75.212251,39.936991,286,36,Eastbound,31,20954,GRA51SNE,Grays Av & 51st St,39.936991,-75.212251,Elmwood
-75.2400969999999,39.9214630000001,287,11,Eastbound,14,20708,WOO69TNE,Woodland Av & 69th St,39.921463,-75.240097,Elmwood
-75.148022,39.970484,288,15,Westbound,30,20998,GIR7THWE,Girard Av & 7th St,39.970484,-75.148022,Callowhill
-75.393939,39.9186290000001,289,101,Westbound,36,1947,ORASTAWE,Orange St Station - MBFS,39.918629,-75.393939,Victory
-75.263743,39.960882,290,101,Westbound,2,15319,FAISTASW,Fairfield Av Station - FS,39.960882,-75.263743,Victory
-75.230599,39.9282670000001,291,11,Westbound,27,303,WOO62NSW,Woodland Av & 62nd St,39.928267,-75.230599,Elmwood
-75.229317,39.947846,292,34,Westbound,25,20889,BAL53RWE,Baltimore Av & 53rd St,39.947846,-75.229317,Elmwood
-75.208565,39.94541,293,36,Eastbound,38,20728,WOO45TNE,Woodland Av & 45th St,39.94541,-75.208565,Elmwood
-75.254161,39.9238750000001,294,13,Westbound,41,20835,CHEALFSW,Chester Av & Alfred Av,39.923875,-75.254161,Elmwood
-75.215344,39.944958,295,13,Eastbound,31,20789,CHE48TNE,Chester Av & 48th St,39.944958,-75.215344,Elmwood
-75.2201239999999,39.9417260000001,296,13,Westbound,19,20815,CHE52NSW,Chester Av & 52nd St,39.941726,-75.220124,Elmwood
-75.181756,39.9743750000001,297,15,Westbound,45,21018,GIR28TWE,Girard Av & 28th St,39.974375,-75.181756,Callowhill
-75.2244479999999,39.9326300000001,298,11,Westbound,24,20748,WOO58TSW,Woodland Av & 58th St,39.93263,-75.224448,Elmwood
-75.235531,39.924803,299,11,Westbound,31,20754,WOO66TSW,Woodland Av & 66th St,39.924803,-75.235531,Elmwood
-75.3909169999999,39.9182000000001,300,101,Westbound,34,18612,OLISTAWE,Olive St Station,39.9182,-75.390917,Victory
-75.1894379999999,39.955406,301,10,Westbound,7,21445,33RMARNO,33rd St & Market St,39.955406,-75.189438,Callowhill
-75.214884,39.9489370000001,302,34,Westbound,17,20883,BAL46TWE,Baltimore Av & 46th St,39.948937,-75.214884,Elmwood
-75.162559,39.9525320000001,303,34,Westbound,1,283,JUNSTANO,13th St Trolley Station,39.952532,-75.162559,Elmwood
-75.299799,39.9487510000001,304,101,Westbound,13,18602,SCHSTANW,School Ln Station - FS,39.948751,-75.299799,Victory
-75.2429979999999,39.9132660000001,305,36,Eastbound,7,20931,ELMISLNE,Elmwood Av & Island Av - MBFS,39.913266,-75.242998,Elmwood
-75.20956,39.9676700000001,306,10,Westbound,19,20673,LANPARNW,Lancaster Av & Parrish St,39.96767,-75.20956,Callowhill
-75.241432,39.9072840000001,307,36,Eastbound,4,20928,ISL76TNW,Island Av & 76th St,39.907284,-75.241432,Elmwood
-75.236081,39.918101,308,36,Eastbound,13,20936,ELM69TNE,Elmwood Av & 69th St,39.918101,-75.236081,Elmwood
-75.1767359999999,39.953962,309,10,Eastbound,36,20645,MA22EAU,22nd St Trolley Station,39.953962,-75.176736,Callowhill
-75.252447,39.9246850000001,310,13,Westbound,40,325,CHECALSW,Chester Av & Allen Dr Yeadon Loop,39.924685,-75.252447,Elmwood
-75.250567,39.9165790000001,311,11,Eastbound,8,20702,MAI2NDEA,Main St & 2nd St,39.916579,-75.250567,Elmwood
-75.22045,39.9352920000001,312,11,Eastbound,27,20721,WOO55TNE,Woodland Av & 55th St,39.935292,-75.22045,Elmwood
-75.183169,39.954894,313,34,Westbound,5,20662,MA30WEU,30th St Trolley Station,39.954894,-75.183169,Elmwood
-75.2819969999999,39.911613,314,102,Westbound,24,15333,ANDSTASO,Andrews Av Station,39.911613,-75.281997,Victory
-75.2125819999999,39.940955,315,36,Westbound,19,302,WOO49TSW,Woodland Av & 49th St,39.940955,-75.212582,Elmwood
-75.1653449999999,39.9526720000001,316,13,Westbound,2,20659,MA15WEU,15th St Trolley Station,39.952672,-75.165345,Elmwood
-75.2436509999999,39.9754990000001,317,10,Eastbound,6,20614,LAN62NEA,Lansdowne Av & 62nd St,39.975499,-75.243651,Callowhill
-75.2117279999999,39.9419530000001,318,36,Eastbound,35,20726,WOO48TNE,Woodland Av & 48th St,39.941953,-75.211728,Elmwood
-75.2162769999999,39.972814,319,15,Westbound,55,30550,GIRMERWE,Girard Av & Merion Av,39.972814,-75.216277,Callowhill
-75.171483,39.953425,320,34,Westbound,3,20660,MA19WEU,19th St Trolley Station,39.953425,-75.171483,Elmwood
-75.196472,39.975126,321,15,Westbound,49,30291,GIR34TWE,Girard Av & 34th St - MBFS,39.975126,-75.196472,Callowhill
-75.286772,39.949915,322,101,Westbound,9,18600,DRESTASW,Drexel Park Station,39.949915,-75.286772,Victory
-75.230339,39.932595,323,13,Westbound,28,20823,60TKINSE,60th St & Kingsessing Av,39.932595,-75.230339,Elmwood
-75.196586,39.950993,324,34,Eastbound,39,20731,SP37NEU,37th St Trolley Station,39.950993,-75.196586,Elmwood
-75.292684,39.927288,325,102,Westbound,18,15330,SPRSTNSO,Springfield Rd Station,39.927288,-75.292684,Victory
-75.229126,39.9229720000001,326,36,Eastbound,18,20941,ELM64TNE,Elmwood Av & 64th St,39.922972,-75.229126,Elmwood
-75.235461,39.9288900000001,327,13,Eastbound,16,319,KINCEMNE,Kingsessing Av & Cemetary Av - Mt Moriah Loop,39.92889,-75.235461,Elmwood
-75.348992,39.918011,328,101,Eastbound,13,1951,SPMSTANE,Springfield Mall Station,39.918011,-75.348992,Victory
-75.176571,39.954051,329,36,Westbound,4,20661,MA22WEU,22nd St Trolley Station,39.954051,-75.176571,Elmwood
-75.176571,39.954051,330,10,Westbound,4,20661,MA22WEU,22nd St Trolley Station,39.954051,-75.176571,Callowhill
-75.189676,39.9548800000001,331,34,Westbound,6,20658,33MAWEU,33rd St Trolley Station,39.95488,-75.189676,Elmwood
-75.194722,39.9538900000001,332,13,Westbound,7,20733,36SASOU,36th St Trolley Station,39.95389,-75.194722,Elmwood
-75.177403,39.972492,333,15,Westbound,42,21014,POP25TWE,Poplar St & 25th St,39.972492,-75.177403,Callowhill
-75.239366,39.969897,334,15,Eastbound,4,21048,GIR60TEA,Girard Av & 60th St,39.969897,-75.239366,Callowhill
-75.246044,39.9265770000001,335,13,Westbound,36,20831,CHECHUSW,Chester Av & Church Ln,39.926577,-75.246044,Elmwood
-75.2228929999999,39.939785,336,13,Westbound,21,20817,CHE54TSW,Chester Av & 54th St,39.939785,-75.222893,Elmwood
-75.24603,39.978234,337,10,Westbound,37,20693,63RJEFNO,63rd St & Jefferson St,39.978234,-75.24603,Callowhill
-75.219012,39.9425190000001,338,13,Westbound,18,20814,CHE51SSW,Chester Av & 51st St,39.942519,-75.219012,Elmwood
-75.209797,39.944323,339,11,Eastbound,36,20727,WOO46TNE,Woodland Av & 46th St,39.944323,-75.209797,Elmwood
-75.255486,39.9178080000001,340,11,Westbound,44,20766,MAI6THWE,Main St & 6th St,39.917808,-75.255486,Elmwood
-75.23927,39.8994710000001,341,36,Eastbound,2,605,ISLSUFNO,Island Av & Suffolk Av - MBNS,39.899471,-75.23927,Elmwood
-75.226176,39.9768550000001,342,10,Eastbound,16,20625,LANBIBSE,Lancaster Av & Bible Way,39.976855,-75.226176,Callowhill
-75.162559,39.9525320000001,343,13,Westbound,1,283,JUNSTANO,13th St Trolley Station,39.952532,-75.162559,Elmwood
-75.230404,39.922082,344,36,Eastbound,17,20940,ELM65TNE,Elmwood Av & 65th St,39.922082,-75.230404,Elmwood
-75.203333,39.949533,345,11,Eastbound,39,20804,40TPORNE,40th St Trolley Portal,39.949533,-75.203333,Elmwood
-75.211541,39.9687720000001,346,10,Eastbound,22,20631,LAN44TSE,Lancaster Av & 44th St,39.968772,-75.211541,Callowhill
-75.229908,39.9770130000001,347,10,Eastbound,14,20623,LAN54TEA,Lansdowne Av & 54th St,39.977013,-75.229908,Callowhill
-75.2384989999999,39.97617,348,10,Westbound,32,20688,LAN59TWE,Lansdowne Av & 59th St,39.97617,-75.238499,Callowhill
-75.221404,39.9481010000001,349,34,Eastbound,26,600,BAL49TEA,Baltimore Av & 49th St,39.948101,-75.221404,Elmwood
-75.2020209999999,39.9572590000001,350,11,Westbound,9,21248,40TMARSO,40th St & Market St,39.957259,-75.202021,Elmwood
-75.2667,39.958851,351,102,Westbound,3,18597,WALSTASW,Walnut St Station - FS,39.958851,-75.2667,Victory
-75.237523,39.970099,352,15,Eastbound,5,349,GIR59TEA,Girard Av & 59th St,39.970099,-75.237523,Callowhill
-75.2573149999999,39.9180880000001,353,11,Eastbound,3,20697,MAISUMEA,Main St & Summit St,39.918088,-75.257315,Elmwood
-75.1767359999999,39.953962,354,34,Eastbound,43,20645,MA22EAU,22nd St Trolley Station,39.953962,-75.176736,Elmwood
-75.211964,39.9732080000001,355,15,Eastbound,13,21060,GIRBELEA,Girard Av & Belmont Av - FS,39.973208,-75.211964,Callowhill
-75.117582,39.981416,356,15,Westbound,11,17785,ARALEHSW,Aramingo Av & Lehigh St - FS,39.981416,-75.117582,Callowhill
-75.246245,39.917304,357,34,Westbound,47,304,WOOISLSW,Woodland Av & Island Av,39.917304,-75.246245,Elmwood
-75.21127,39.9491810000001,358,34,Eastbound,32,20874,BAL44TEA,Baltimore Av & 44th St,39.949181,-75.21127,Elmwood
-75.1653689999999,39.952502,359,36,Eastbound,48,31140,MA15EAU,15th St Trolley Station,39.952502,-75.165369,Elmwood
-75.20834,39.945767,360,36,Westbound,12,20737,WOO43RSW,Woodland Av & 43rd St,39.945767,-75.20834,Elmwood
-75.2186149999999,39.973059,361,10,Eastbound,19,277,LANGIRSE,Lancaster Av & Girard Av,39.973059,-75.218615,Callowhill
-75.201901,39.957929,362,10,Eastbound,27,279,40TFILSO,40th St & Filbert St,39.957929,-75.201901,Callowhill
-75.1482109999999,39.9703860000001,363,15,Eastbound,37,21091,GIR7THEA,Girard Av & 7th St,39.970386,-75.148211,Callowhill
-75.240879,39.929104,364,13,Westbound,34,31218,65TBELWE,65th St & Belmar St,39.929104,-75.240879,Elmwood
-75.263743,39.960882,365,102,Westbound,2,15319,FAISTASW,Fairfield Av Station - FS,39.960882,-75.263743,Victory
-75.2492099999999,39.916363,366,11,Eastbound,9,20703,MAIFROEA,Main St & Front St,39.916363,-75.24921,Elmwood
-75.259689,39.962161,367,102,Eastbound,26,15497,69THWEST,69th St Transportation Center West Terminal,39.962161,-75.259689,Victory
-75.178171,39.9724400000001,368,15,Eastbound,25,21073,POPSTIEA,Poplar St & Stillman St,39.97244,-75.178171,Callowhill
-75.162806,39.9718280000001,369,15,Eastbound,32,21083,GIR16TEA,Girard Av & 16th St,39.971828,-75.162806,Callowhill
-75.230285,39.9223050000001,370,36,Westbound,34,20911,ELM65TSW,Elmwood Av & 65th St,39.922305,-75.230285,Elmwood
-75.186549,39.9750090000001,371,15,Westbound,47,21021,GIR31SWE,Girard Av & 31st St,39.975009,-75.186549,Callowhill
-75.2963779999999,39.9401700000001,372,102,Eastbound,13,15340,MARSTANO,Marshall Rd Station - FS,39.94017,-75.296378,Victory
-75.376861,39.916071,373,101,Eastbound,9,18620,BEASTAEA,Beatty Rd Station,39.916071,-75.376861,Victory
-75.2446409999999,39.9718950000001,374,15,Westbound,66,21481,HAV63RWE,Haverford Av & 63rd St,39.971895,-75.244641,Callowhill
-75.197306,39.9510480000001,375,34,Westbound,8,20734,SP37SWU,37th St Trolley Station,39.951048,-75.197306,Elmwood
-75.1449049999999,39.970218,376,15,Westbound,29,20996,GIR5THWE,Girard Av & 5th St,39.970218,-75.144905,Callowhill
-75.288982,39.9488640000001,377,101,Westbound,10,18601,IRVSTASW,Irvington Rd Station,39.948864,-75.288982,Victory
-75.219747,39.9737480000001,378,10,Eastbound,18,20627,LANTHOSE,Lancaster Av & Thompson St,39.973748,-75.219747,Callowhill
-75.246565,39.9263100000001,379,13,Eastbound,11,20778,CHECHUNE,Chester Av & Church Ln,39.92631,-75.246565,Elmwood
-75.102882,39.9847080000001,380,15,Westbound,3,30799,ALLTHONW,Allegheny Av & Thompson St,39.984708,-75.102882,Callowhill
-75.216527,39.9442810000001,381,13,Westbound,17,322,CHE49TSW,Chester Av & 49th St,39.944281,-75.216527,Elmwood
-75.287045,39.919517,382,102,Westbound,21,10011,MAGSTASE,Magnolia Av Station,39.919517,-75.287045,Victory
-75.222389,39.9752340000001,383,10,Westbound,25,20679,LAN50TNW,Lancaster Av & 50th St,39.975234,-75.222389,Callowhill
-75.204531,39.974043,384,15,Eastbound,16,350,GIR40TEA,Girard Av & 40th St,39.974043,-75.204531,Callowhill
-75.171637,39.9533270000001,385,10,Eastbound,37,20646,MA19EAU,19th St Trolley Station,39.953327,-75.171637,Callowhill
-75.1653449999999,39.9526720000001,386,10,Westbound,2,20659,MA15WEU,15th St Trolley Station,39.952672,-75.165345,Callowhill
-75.2335219999999,39.9474420000001,387,34,Westbound,27,20891,BAL55TWE,Baltimore Av & 55th St,39.947442,-75.233522,Elmwood
-75.2463759999999,39.9170990000001,388,11,Eastbound,10,20704,WOOISLNE,Woodland Av & Island Av,39.917099,-75.246376,Elmwood
-75.233142,39.9263520000001,389,11,Eastbound,19,20713,WOO64TNE,Woodland Av & 64th St,39.926352,-75.233142,Elmwood
-75.2159379999999,39.9715640000001,390,10,Westbound,22,20677,LAN47TNW,Lancaster Av & 47th St,39.971564,-75.215938,Callowhill
-75.241698,39.945411,391,34,Eastbound,12,20895,BAL59TWE,Baltimore Av & 59th St,39.945411,-75.241698,Elmwood
-75.289148,39.9486680000001,392,101,Eastbound,27,18628,IRVSTANE,Irvington Rd Station,39.948668,-75.289148,Victory
-75.2016829999999,39.9745110000001,393,15,Westbound,50,21025,GIR39TWE,Girard Av & 39th St,39.974511,-75.201683,Callowhill
-75.357953,39.9152760000001,394,101,Eastbound,12,20025,PAPSTAEA,Paper Mill Rd Station - FS,39.915276,-75.357953,Victory
-75.2559459999999,39.923012,395,13,Westbound,42,20836,CHECEDSW,Chester Av & Cedar Av,39.923012,-75.255946,Elmwood
-75.13945,39.9695,396,15,Westbound,26,20993,GIR2NDWE,Girard Av & 2nd St,39.9695,-75.13945,Callowhill
-75.2151019999999,39.939192,397,11,Westbound,17,20741,WOO51SSW,Woodland Av & 51st St,39.939192,-75.215102,Elmwood
-75.2342889999999,39.9256840000001,398,11,Westbound,30,20753,WOO65TSW,Woodland Av & 65th St,39.925684,-75.234289,Elmwood
-75.2445979999999,39.970226,399,15,Eastbound,1,21044,GIR63REA,Girard Av & 63rd St - MBFS,39.970226,-75.244598,Callowhill
-75.1767359999999,39.953962,400,11,Eastbound,45,20645,MA22EAU,22nd St Trolley Station,39.953962,-75.176736,Elmwood
-75.125999,39.971709,401,15,Eastbound,50,21103,GIRBERNE,Girard Av & Berks St,39.971709,-75.125999,Callowhill
-75.189676,39.9548800000001,402,10,Westbound,6,20658,33MAWEU,33rd St Trolley Station,39.95488,-75.189676,Callowhill
-75.245529,39.975582,403,10,Westbound,36,20692,63RLANNO,63rd St & Lansdowne Av - FS,39.975582,-75.245529,Callowhill
-75.099458,39.9842530000001,404,15,Westbound,1,341,WESLOONE,Richmond St & Westmoreland St Loop,39.984253,-75.099458,Callowhill
-75.382998,39.91693,405,101,Eastbound,7,18619,MANSTAEA,Manchester Av Station,39.91693,-75.382998,Victory
-75.2298489999999,39.9349500000001,406,13,Westbound,26,20821,CHE59TSW,Chester Av & 59th St,39.93495,-75.229849,Elmwood
-75.3126359999999,39.9478260000001,407,101,Eastbound,22,18626,ANDSTANE,Anderson Av Station - FS,39.947826,-75.312636,Victory
-75.212658,39.947006,408,13,Westbound,14,20810,CHE46TSW,Chester Av & 46th St,39.947006,-75.212658,Elmwood
-75.244322,39.944468,409,34,Westbound,32,20896,BAL60TWE,Baltimore Av & 60th St,39.944468,-75.244322,Elmwood
-75.269301,39.9576490000001,410,101,Westbound,4,1938,AVOSTASW,Avon Rd Station - FS,39.957649,-75.269301,Victory
-75.2097249999999,39.944537,411,11,Westbound,13,20739,WOO46TSW,Woodland Av & 46th St,39.944537,-75.209725,Elmwood
-75.2192019999999,39.9301310000001,412,36,Westbound,26,20903,ELM57TSW,Elmwood Av & 57th St,39.930131,-75.219202,Elmwood
-75.1160629999999,39.980243,413,15,Westbound,10,20983,RICLEHSW,Belgrade St & Lehigh Av - detour,39.980243,-75.116063,Callowhill
-75.1067439999999,39.9851200000001,414,15,Westbound,5,20979,RICCLESW,Belgrade St & Clearfield St - detour,39.98512,-75.106744,Callowhill
-75.107548,39.9822750000001,415,15,Eastbound,58,21112,RICINDNE,Thompson St & Indiana Av - detour,39.982275,-75.107548,Callowhill
-75.183169,39.954894,416,10,Westbound,5,20662,MA30WEU,30th St Trolley Station,39.954894,-75.183169,Callowhill
-75.200353,39.962004,417,10,Eastbound,28,20636,LANSPRSE,Lancaster Av & Spring Garden St,39.962004,-75.200353,Callowhill
-75.224844,39.9262410000001,418,36,Westbound,30,20907,ELM61SSW,Elmwood Av & 61st St,39.926241,-75.224844,Elmwood
-75.2265599999999,39.9248420000001,419,36,Eastbound,20,20943,ELM62NNE,Elmwood Av & 62nd St,39.924842,-75.22656,Elmwood
-75.2998699999999,39.94859,420,101,Eastbound,24,18627,SCHSTASE,School Ln Station,39.94859,-75.29987,Victory
-75.211428,39.9477,421,13,Eastbound,34,20800,CHE45TNE,Chester Av & 45th St,39.9477,-75.211428,Elmwood
-75.2515339999999,39.9168920000001,422,11,Westbound,41,20763,MAI3RDWE,Main St & 3rd St,39.916892,-75.251534,Elmwood
-75.1360749999999,39.9689030000001,423,15,Westbound,25,342,GIRFROWE,Girard Av & Front St,39.968903,-75.136075,Callowhill
-75.333515,39.9286650000001,424,101,Eastbound,17,15370,SAXSTANE,Saxer Av Station - FS,39.928665,-75.333515,Victory
-75.2033709999999,39.9638570000001,425,10,Westbound,16,20670,LANWALNW,Lancaster Av & Wallace St,39.963857,-75.203371,Callowhill
-75.244412,39.9184320000001,426,11,Eastbound,11,20705,WOO72NNE,Woodland Av & 72nd St,39.918432,-75.244412,Elmwood
-75.159275,39.971499,427,15,Westbound,34,343,GIRBROWE,Girard Av & Broad St,39.971499,-75.159275,Callowhill
-75.229067,39.923204,428,36,Westbound,33,20910,ELM64TSW,Elmwood Av & 64th St,39.923204,-75.229067,Elmwood
-75.244342,39.918622,429,11,Westbound,37,20760,WOO72NSW,Woodland Av & 72nd St,39.918622,-75.244342,Elmwood
-75.244429,39.9442990000001,430,34,Westbound,34,20859,BAL60TNE,Baltimore Av & 60th St,39.944299,-75.244429,Elmwood
-75.141599,39.9697110000001,431,15,Eastbound,39,21095,GIR3RDEA,Girard Av & 3rd St,39.969711,-75.141599,Callowhill
-75.207121,39.946675,432,11,Eastbound,38,20729,WOO42NNE,Woodland Av & 42nd St,39.946675,-75.207121,Elmwood
-75.2899839999999,39.92575,433,102,Eastbound,8,30374,CLISTNNO,Clifton Aldan Station,39.92575,-75.289984,Victory
-75.2855499999999,39.9174980000001,434,102,Westbound,22,1961,NORSTASO,North St Station,39.917498,-75.28555,Victory
-75.213018,39.9490060000001,435,34,Eastbound,31,20873,BAL45TEA,Baltimore Av & 45th St,39.949006,-75.213018,Elmwood
-75.223377,39.9478720000001,436,34,Westbound,44,20869,BAL50TEA,Baltimore Av & 50th St,39.947872,-75.223377,Elmwood
-75.23714,39.9279020000001,437,13,Eastbound,15,20843,65TKINSE,65th St & Kingsessing Av,39.927902,-75.23714,Elmwood
-75.2420999999999,39.9091320000001,438,36,Westbound,46,20921,ISLTANSO,Island Av & Tanager St,39.909132,-75.2421,Elmwood
-75.242642,39.9140150000001,439,36,Westbound,44,611,ELMLOOWE,Elmwood Loop,39.914015,-75.242642,Elmwood
-75.212991,39.9696670000001,440,10,Eastbound,21,20630,LAN45TSE,Lancaster Av & 45th St,39.969667,-75.212991,Callowhill
-75.201802,39.974297,441,15,Eastbound,17,21063,GIR39TEA,Girard Av & 39th St,39.974297,-75.201802,Callowhill
-75.382738,39.9170550000001,442,101,Westbound,30,18609,MANSTAWE,Manchester Av Station,39.917055,-75.382738,Victory
-75.197306,39.9510480000001,443,13,Westbound,8,20734,SP37SWU,37th St Trolley Station,39.951048,-75.197306,Elmwood
-75.2314689999999,39.933784,444,13,Westbound,27,20822,60TCHESW,Chester Av & 60th St,39.933784,-75.231469,Elmwood
-75.263613,39.9608640000001,445,101,Eastbound,35,15348,FAISTANE,Fairfield Av Station,39.960864,-75.263613,Victory
-75.113659,39.981523,446,15,Westbound,9,31795,BELSOMSW,Belgrade St & Somerset St - detour,39.981523,-75.113659,Callowhill
-75.1897,39.954773,447,10,Eastbound,34,20642,33MAEAU,33rd St Trolley Station,39.954773,-75.1897,Callowhill
-75.223199,39.948041,448,34,Westbound,22,20886,BAL50TWE,Baltimore Av & 50th St,39.948041,-75.223199,Elmwood
-75.108934,39.981573,449,15,Eastbound,57,21111,RICANNNE,Thompson St & Ann St - detour,39.981573,-75.108934,Callowhill
-75.203333,39.949533,450,13,Eastbound,37,20804,40TPORNE,40th St Trolley Portal,39.949533,-75.203333,Elmwood
-75.3398119999999,39.9247070000001,451,101,Westbound,22,1943,WOOSTASW,Woodland Av Station,39.924707,-75.339812,Victory
-75.17022,39.9728880000001,452,15,Westbound,40,21010,GIRCORWE,Girard Av & Corinthian Av,39.972888,-75.17022,Callowhill
-75.162559,39.9525320000001,453,36,Eastbound,49,283,JUNSTANO,13th St Trolley Station,39.952532,-75.162559,Elmwood
-75.389348,39.9179850000001,454,101,Westbound,33,18611,JACSTAWE,Jackson St Station,39.917985,-75.389348,Victory
-75.284092,39.914703,455,102,Eastbound,4,18842,BARSTANO,Bartram Av Station - FS,39.914703,-75.284092,Victory
-75.295781,39.9440880000001,456,102,Eastbound,15,15341,GARSTANO,Garrettford Station,39.944088,-75.295781,Victory
-75.1653689999999,39.952502,457,10,Eastbound,38,31140,MA15EAU,15th St Trolley Station,39.952502,-75.165369,Callowhill
-75.2382229999999,39.92893,458,13,Westbound,33,20827,65TCHENW,65th St & Chester St,39.92893,-75.238223,Elmwood
-75.2337929999999,39.9302000000001,459,13,Westbound,30,20825,KIN62NSW,Kingsessing Av & 62nd St,39.9302,-75.233793,Elmwood
-75.269301,39.9576490000001,460,102,Westbound,4,1938,AVOSTASW,Avon Rd Station - FS,39.957649,-75.269301,Victory
-75.203333,39.9495950000001,461,13,Westbound,9,301,40TPORSW,40th St Trolley Portal,39.949595,-75.203333,Elmwood
-75.2337459999999,39.9472460000001,462,34,Westbound,39,20864,BAL55TNE,Baltimore Av & 55th St,39.947246,-75.233746,Elmwood
-75.18675,39.9749380000001,463,15,Eastbound,19,21067,GIR31SEA,Girard Av & 31st St,39.974938,-75.18675,Callowhill
-75.24108,39.9290500000001,464,13,Eastbound,13,20781,65TBELEA,65th St & Belmar Av,39.92905,-75.24108,Elmwood
-75.150042,39.97047,465,15,Eastbound,36,21090,GIR8THEA,Girard Av & 8th St,39.97047,-75.150042,Callowhill
-75.2152849999999,39.9451540000001,466,13,Westbound,16,20812,CHE48TSW,Chester Av & 48th St,39.945154,-75.215285,Elmwood
-75.208565,39.94541,467,11,Eastbound,37,20728,WOO45TNE,Woodland Av & 45th St,39.94541,-75.208565,Elmwood
-75.290161,39.9257230000001,468,102,Westbound,19,18636,CLISTASO,Clifton Aldan Station - FS,39.925723,-75.290161,Victory
-75.212094,39.9733150000001,469,15,Westbound,54,21028,GIRBELWE,Girard Av & Belmont Av,39.973315,-75.212094,Callowhill
-75.282328,39.9516140000001,470,102,Eastbound,19,30494,LANSTNNE,Lansdowne Av Station,39.951614,-75.282328,Victory
-75.196586,39.950993,471,11,Eastbound,41,20731,SP37NEU,37th St Trolley Station,39.950993,-75.196586,Elmwood
-75.193786,39.9585650000001,472,10,Eastbound,30,20639,LAN36TSE,Lancaster Av & 36th St,39.958565,-75.193786,Callowhill
-75.205859,39.9497610000001,473,34,Eastbound,35,20877,BAL41SEA,Baltimore Av & 41st St,39.949761,-75.205859,Elmwood
-75.2373269999999,39.9463860000001,474,34,Eastbound,18,20862,BAL57TNE,Baltimore Av & 57th St,39.946386,-75.237327,Elmwood
-75.345341,39.9211230000001,475,101,Eastbound,14,18621,THOSTANE,Thomson Av Station,39.921123,-75.345341,Victory
-75.238441,39.922621,476,11,Eastbound,15,20709,WOO68TNE,Woodland Av & 68th St,39.922621,-75.238441,Elmwood
-75.232477,39.970761,477,15,Westbound,60,21037,GIR56TWE,Girard Av & 56th St,39.970761,-75.232477,Callowhill
-75.2503189999999,39.916614,478,11,Westbound,40,20762,MAI2NDWE,Main St & 2nd St,39.916614,-75.250319,Elmwood
-75.1283999999999,39.970983,479,15,Westbound,16,20988,GIRPALWE,Girard Av & Palmer St,39.970983,-75.1284,Callowhill
-75.253044,39.9171440000001,480,11,Eastbound,6,20700,MAI4THEA,Main St & 4th St,39.917144,-75.253044,Elmwood
-75.3298599999999,39.9339630000001,481,101,Westbound,19,18606,SPGSTASO,Springfield Rd Station - FS,39.933963,-75.32986,Victory
-75.229612,39.9477660000001,482,34,Eastbound,22,20866,BAL53REA,Baltimore Av & 53rd St,39.947766,-75.229612,Elmwood
-75.213984,39.945901,483,13,Eastbound,32,20790,CHE47TNE,Chester Av & 47th St,39.945901,-75.213984,Elmwood
-75.134338,39.966008,484,15,Westbound,23,23992,FRARICNO,Frankford Av & Richmond St,39.966008,-75.134338,Callowhill
-75.207485,39.9663990000001,485,10,Westbound,18,20672,LAN42NNW,Lancaster Av & 42nd St,39.966399,-75.207485,Callowhill
-75.2256609999999,39.9377010000001,486,13,Eastbound,24,20792,CHE56TNE,Chester Av & 56th St,39.937701,-75.225661,Elmwood
-75.211716,39.9421760000001,487,36,Westbound,18,20740,WOO48TSW,Woodland Av & 48th St,39.942176,-75.211716,Elmwood
-75.203333,39.9495950000001,488,34,Westbound,9,301,40TPORSW,40th St Trolley Portal,39.949595,-75.203333,Elmwood
-75.2623169999999,39.91904,489,13,Westbound,48,305,DARTRA1,Darby Transportation Center - trolley,39.91904,-75.262317,Elmwood
-75.2315619999999,39.921432,490,36,Westbound,35,20912,ELM66TSW,Elmwood Av & 66th St,39.921432,-75.231562,Elmwood
-75.207151,39.948424,491,13,Eastbound,36,20802,CHE42NEA,Chester Av & 42nd St,39.948424,-75.207151,Elmwood
-75.226441,39.9250650000001,492,36,Westbound,31,20908,ELM62NSW,Elmwood Av & 62nd St,39.925065,-75.226441,Elmwood
-75.221404,39.9481010000001,493,34,Eastbound,27,600,BAL49TEA,Baltimore Av & 49th St,39.948101,-75.221404,Elmwood
-75.194722,39.9538900000001,494,11,Westbound,7,20733,36SASOU,36th St Trolley Station,39.95389,-75.194722,Elmwood
-75.243282,39.913168,495,36,Westbound,43,20919,ELMISLSW,Elmwood Av & Island Av,39.913168,-75.243282,Elmwood
-75.104742,39.9837580000001,496,15,Eastbound,59,21113,RICCLENE,Thompson St & Clementine St - detour,39.983758,-75.104742,Callowhill
-75.2688879999999,39.9577200000001,497,102,Eastbound,23,1957,AVOSTANE,Avon Rd Station - FS,39.95772,-75.268888,Victory
-75.171637,39.9533270000001,498,36,Eastbound,47,20646,MA19EAU,19th St Trolley Station,39.953327,-75.171637,Elmwood
-75.254295,39.91753,499,11,Westbound,43,20765,MAI5THWE,Main St & 5th St,39.91753,-75.254295,Elmwood
-75.376967,39.916249,500,101,Westbound,28,18608,BEASTAWE,Beatty Rd Station,39.916249,-75.376967,Victory
-75.2273089999999,39.947842,501,34,Westbound,24,20888,BAL52NWE,Baltimore Av & 52nd St,39.947842,-75.227309,Elmwood
-75.220308,39.935524,502,11,Westbound,21,20745,WOO55TSW,Woodland Av & 55th St,39.935524,-75.220308,Elmwood
-75.134493,39.96865,503,15,Eastbound,42,31540,FRAGI2SO,Frankford Av & Girard Av - FS,39.96865,-75.134493,Callowhill
-75.250817,39.925102,504,13,Eastbound,8,20775,CHESTENE,Chester Av & Stetser Av,39.925102,-75.250817,Elmwood
-75.211716,39.9421760000001,505,36,Westbound,14,20740,WOO48TSW,Woodland Av & 48th St,39.942176,-75.211716,Elmwood
-75.2667,39.958851,506,101,Westbound,3,18597,WALSTASW,Walnut St Station - FS,39.958851,-75.2667,Victory
-75.188002,39.975199,507,15,Westbound,48,21022,GIR33RWE,Girard Av & 33rd St,39.975199,-75.188002,Callowhill
-75.246461,39.980582,508,10,Westbound,38,20695,63RCOLNO,63rd St & Columbia Av,39.980582,-75.246461,Callowhill
-75.233761,39.976591,509,10,Eastbound,12,20619,LAN56TEA,Lansdowne Av & 56th St,39.976591,-75.233761,Callowhill
-75.195542,39.9596310000001,510,10,Westbound,11,31488,LANPOWNW,Lancaster Av & Powelton Av,39.959631,-75.195542,Callowhill
-75.145094,39.9701290000001,511,15,Eastbound,38,21093,GIR5THEA,Girard Av & 5th St,39.970129,-75.145094,Callowhill
-75.2144289999999,39.935282,512,36,Westbound,23,20900,LIN53RSW,Lindbergh Blvd & Grays Av - FS,39.935282,-75.214429,Elmwood
-75.236856,39.923886,513,11,Westbound,32,20755,WOO67TSW,Woodland Av & 67th St,39.923886,-75.236856,Elmwood
-75.2162319999999,39.932402,514,36,Eastbound,27,20950,LINWHENE,Lindbergh Blvd & Wheeler St,39.932402,-75.216232,Elmwood
-75.1653449999999,39.9526720000001,515,36,Westbound,2,20659,MA15WEU,15th St Trolley Station,39.952672,-75.165345,Elmwood
-75.2020209999999,39.9572590000001,516,13,Eastbound,38,21248,40TMARSO,40th St & Market St,39.957259,-75.202021,Elmwood
-75.292519,39.927288,517,102,Eastbound,9,30544,SPRSTANO,Springfield Rd Station,39.927288,-75.292519,Victory
-75.201826,39.9629,518,10,Westbound,14,20669,LANHAVNW,Lancaster Av & Haverford Av,39.9629,-75.201826,Callowhill
-75.217747,39.9309860000001,519,36,Eastbound,26,20949,ELM56TNE,Elmwood Av & 56th St,39.930986,-75.217747,Elmwood
-75.155603,39.9710450000001,520,15,Westbound,33,21002,GIR12TWE,Girard Av & 12th St,39.971045,-75.155603,Callowhill
-75.22259,39.9752070000001,521,10,Eastbound,17,20626,LAN50NSE,Lancaster Av & 50th St,39.975207,-75.22259,Callowhill
-75.306033,39.9492030000001,522,101,Eastbound,23,16395,AROSTANE,Aronimink Station,39.949203,-75.306033,Victory
-75.316144,39.9472400000001,523,101,Westbound,16,18604,DXBSTAWE,Drexelbrook Station,39.94724,-75.316144,Victory
-75.266263,39.958921,524,101,Eastbound,34,18632,WALSTANE,Walnut St Station,39.958921,-75.266263,Victory
-75.266263,39.958921,525,102,Eastbound,24,18632,WALSTANE,Walnut St Station,39.958921,-75.266263,Victory
-75.099458,39.9842530000001,526,15,Eastbound,62,341,WESLOONE,Richmond St & Westmoreland St Loop,39.984253,-75.099458,Callowhill
-75.193585,39.958404,527,10,Westbound,10,20665,36TLANNO,36th St & Lancaster Av,39.958404,-75.193585,Callowhill
-75.282328,39.9516140000001,528,101,Eastbound,29,30494,LANSTNNE,Lansdowne Av Station,39.951614,-75.282328,Victory
-75.259641,39.9225530000001,529,13,Westbound,45,20840,10TSUMSW,10th St & Summit St,39.922553,-75.259641,Elmwood
-75.240304,39.9457830000001,530,34,Westbound,36,20861,BAL58TNE,Baltimore Av & 58th St,39.945783,-75.240304,Elmwood
-75.1767359999999,39.953962,531,36,Eastbound,46,20645,MA22EAU,22nd St Trolley Station,39.953962,-75.176736,Elmwood
-75.312825,39.9479600000001,532,101,Westbound,15,18603,ANRSTAWE,Anderson Av Station,39.94796,-75.312825,Victory
-75.149853,39.9705680000001,533,15,Westbound,31,20999,GIR8THWE,Girard Av & 8th St,39.970568,-75.149853,Callowhill
-75.183169,39.954894,534,11,Westbound,5,20662,MA30WEU,30th St Trolley Station,39.954894,-75.183169,Elmwood
-75.110652,39.983077,535,15,Westbound,7,20981,RICANNSW,Belgrade St & Birch St - FS detour,39.983077,-75.110652,Callowhill
-75.274822,39.955095,536,101,Westbound,6,18599,BEVSTASW,Beverly Blvd Station - FS,39.955095,-75.274822,Victory
-75.2087969999999,39.9736580000001,537,15,Westbound,53,21027,GIR42NWE,Girard Av & 42nd St,39.973658,-75.208797,Callowhill
-75.179198,39.972701,538,15,Eastbound,24,21072,26TPOPSO,26th St & Poplar St,39.972701,-75.179198,Callowhill
-75.1789459999999,39.973896,539,15,Eastbound,23,21071,GIR26TEA,Girard Av & 26th St,39.973896,-75.178946,Callowhill
-75.1942329999999,39.955451,540,10,Westbound,8,287,36TPORNO,36th St Trolley Portal Station,39.955451,-75.194233,Callowhill
-75.220539,39.929152,541,36,Westbound,27,20904,ELM58TSW,Elmwood Av & 58th St,39.929152,-75.220539,Elmwood
-75.306304,39.9493190000001,542,101,Westbound,14,16402,AROSTAWE,Aronimink Station,39.949319,-75.306304,Victory
-75.235403,39.976406,543,10,Eastbound,11,20618,LAN57TEA,Lansdowne Av & 57th St,39.976406,-75.235403,Callowhill
-75.20834,39.945767,544,36,Westbound,16,20737,WOO43RSW,Woodland Av & 43rd St,39.945767,-75.20834,Elmwood
-75.23284,39.9205240000001,545,36,Westbound,36,20913,ELM67TSW,Elmwood Av & 67th St,39.920524,-75.23284,Elmwood
-75.240304,39.9457830000001,546,34,Eastbound,17,20861,BAL58TNE,Baltimore Av & 58th St,39.945783,-75.240304,Elmwood
-75.1835,39.9548150000001,547,36,Eastbound,45,20643,MA30EAU,30th St Trolley Station,39.954815,-75.1835,Elmwood
-75.2143579999999,39.935121,548,36,Eastbound,29,20952,LIN53RNE,Lindbergh Blvd & 53rd St,39.935121,-75.214358,Elmwood
-75.232291,39.93125,549,13,Westbound,29,20824,KIN61TSW,Kingsessing Av & 61st St,39.93125,-75.232291,Elmwood
-75.2356139999999,39.9246150000001,550,11,Eastbound,17,20711,WOO66TNE,Woodland Av & 66th St,39.924615,-75.235614,Elmwood
-75.22738,39.977295,551,10,Eastbound,15,20624,LANLANEA,Lansdowne Av & Lancaster Av,39.977295,-75.22738,Callowhill
-75.2420289999999,39.9091500000001,552,36,Eastbound,5,20929,ISLTANNW,Island Av & Tanager St - FS,39.90915,-75.242029,Elmwood
-75.227535,39.930457,553,11,Westbound,25,20749,WOO60TSW,Woodland Av & 60th St,39.930457,-75.227535,Elmwood
-75.130423,39.970265,554,15,Westbound,17,20989,GIRCOLWE,Girard Av & Columbia Av,39.970265,-75.130423,Callowhill
-75.241698,39.945411,555,34,Westbound,31,20895,BAL59TWE,Baltimore Av & 59th St,39.945411,-75.241698,Elmwood
-75.237334,39.970224,556,15,Westbound,62,345,GIR59TWE,Girard Av & 59th St,39.970224,-75.237334,Callowhill
-75.292764,39.9470920000001,557,102,Westbound,11,1940,DRXSTASW,Drexel Hill Junction Station,39.947092,-75.292764,Victory
-75.134492,39.966124,558,15,Eastbound,43,24038,FRARICSO,Frankford Av & Richmond St,39.966124,-75.134492,Callowhill
-75.235602,39.946785,559,34,Westbound,38,20863,BAL56TNE,Baltimore Av & 56th St,39.946785,-75.235602,Elmwood
-75.224868,39.926044,560,36,Eastbound,21,20944,ELM61SNE,Elmwood Av & 61st St,39.926044,-75.224868,Elmwood
-75.280832,39.9102820000001,561,102,Eastbound,2,29523,MACSTANO,MacDade Blvd Station - FS,39.910282,-75.280832,Victory
-75.273131,39.9558960000001,562,102,Westbound,5,18598,HILSTASW,Hilltop Rd Station - FS,39.955896,-75.273131,Victory
-75.222952,39.9396070000001,563,13,Eastbound,26,20794,CHE54TNE,Chester Av & 54th St,39.939607,-75.222952,Elmwood
-75.393998,39.9184780000001,564,101,Eastbound,1,1948,ORASTAEA,Orange St Station - MBNS,39.918478,-75.393998,Victory
-75.229612,39.9477660000001,565,34,Westbound,41,20866,BAL53REA,Baltimore Av & 53rd St,39.947766,-75.229612,Elmwood
-75.321592,39.944559,566,101,Eastbound,20,18624,DXLSTANE,Drexeline Station - FS,39.944559,-75.321592,Victory
-75.2284999999999,39.9358320000001,567,13,Westbound,25,323,CHE58TSW,Chester Av & 58th St,39.935832,-75.2285,Elmwood
-75.240349,39.915305,568,36,Westbound,41,20918,ELM72NSW,Elmwood Av & 72nd St,39.915305,-75.240349,Elmwood
-75.207662,39.966391,569,10,Eastbound,24,20633,LAN42NSE,Lancaster Av & 42nd St,39.966391,-75.207662,Callowhill
-75.2413969999999,39.920688,570,11,Westbound,35,20758,WOO70TSW,Woodland Av & 70th St,39.920688,-75.241397,Elmwood
-75.2316749999999,39.9275190000001,571,11,Westbound,28,20751,WOO63RSW,Woodland Av & 63rd St,39.927519,-75.231675,Elmwood
-75.2925749999999,39.947012,572,102,Eastbound,16,1955,DRXSTANE,Drexel Hill Junction Station - FS,39.947012,-75.292575,Victory
-75.211286,39.9398190000001,573,36,Eastbound,33,20955,49TPASNW,49th St & Paschall Av,39.939819,-75.211286,Elmwood
-75.278314,39.9066730000001,574,102,Westbound,26,20431,SHASTA,Sharon Hill Station,39.906673,-75.278314,Victory
-75.2614619999999,39.9213060000001,575,13,Westbound,46,20841,10TRIDSW,10th St & Ridge Av,39.921306,-75.261462,Elmwood
-75.2952779999999,39.9351,576,102,Westbound,15,15328,CRESTASO,Creek Rd Station,39.9351,-75.295278,Victory
-75.244986,39.975332,577,10,Eastbound,5,20613,LAN63DEA,Lansdowne Av & 63rd - FS,39.975332,-75.244986,Callowhill
-75.162559,39.9525320000001,578,11,Westbound,1,283,JUNSTANO,13th St Trolley Station,39.952532,-75.162559,Elmwood
-75.196586,39.950993,579,36,Eastbound,42,20731,SP37NEU,37th St Trolley Station,39.950993,-75.196586,Elmwood
-75.389584,39.9178430000001,580,101,Eastbound,4,18617,JACSTAEA,Jackson St Station,39.917843,-75.389584,Victory
-75.197306,39.9510480000001,581,36,Westbound,8,20734,SP37SWU,37th St Trolley Station,39.951048,-75.197306,Elmwood
-75.1305419999999,39.9701220000001,582,15,Eastbound,48,21100,GIRCOLNE,Girard Av & Columbia Av,39.970122,-75.130542,Callowhill
-75.167339,39.9725070000001,583,15,Westbound,38,30290,GIR19TWE,Girard Av & 19th St,39.972507,-75.167339,Callowhill
-75.196721,39.96024,584,10,Westbound,12,20663,LAN38TNW,Lancaster Av & 38th St,39.96024,-75.196721,Callowhill
-75.171483,39.953425,585,10,Westbound,3,20660,MA19WEU,19th St Trolley Station,39.953425,-75.171483,Callowhill
-75.221086,39.9480820000001,586,34,Eastbound,3,24851,49TBALNW,49th St & Baltimore Av,39.948082,-75.221086,Elmwood
-75.385772,39.917333,587,101,Eastbound,6,18618,EDGSTAEA,Edgmont St Station,39.917333,-75.385772,Victory
-75.221109,39.9482610000001,588,34,Westbound,21,601,BAL49TWE,Baltimore Av & 49th St,39.948261,-75.221109,Elmwood
-75.236056,39.9182970000001,589,36,Westbound,38,20915,ELM69TSW,Elmwood Av & 69th St,39.918297,-75.236056,Elmwood
-75.3217569999999,39.944666,590,101,Westbound,17,18605,DXLSTASW,Drexeline Station,39.944666,-75.321757,Victory
-75.252737,39.9171710000001,591,11,Westbound,42,20764,MAI4THWE,Main St & 4th St,39.917171,-75.252737,Elmwood
-75.16754,39.972427,592,15,Eastbound,29,21080,GIR19TEA,Girard Av & 19th St,39.972427,-75.16754,Callowhill
-75.2473679999999,39.9262130000001,593,13,Westbound,37,30865,CHEYEDSW,Chester Av & Yeadon Av,39.926213,-75.247368,Elmwood
-75.207265,39.949736,594,34,Eastbound,34,20876,BAL42NEA,Baltimore Av & 42nd St,39.949736,-75.207265,Elmwood
-75.2688879999999,39.9577200000001,595,101,Eastbound,33,1957,AVOSTANE,Avon Rd Station - FS,39.95772,-75.268888,Victory
-75.2824219999999,39.951694,596,101,Westbound,8,1939,LANSTASW,Lansdowne Av Station - FS,39.951694,-75.282422,Victory
-75.2976399999999,39.947597,597,101,Westbound,12,15349,HUESTANW,Huey Av Station - FS,39.947597,-75.29764,Victory
-75.213959,39.9460800000001,598,13,Westbound,15,20811,CHE47TSW,Chester Av & 47th St,39.94608,-75.213959,Elmwood
-75.166217,39.97238,599,15,Westbound,37,21008,GIRRIDWE,Girard Av & Ridge Av,39.97238,-75.166217,Callowhill
-75.203333,39.9495950000001,600,11,Westbound,10,301,40TPORSW,40th St Trolley Portal,39.949595,-75.203333,Elmwood
-75.207121,39.946675,601,36,Eastbound,39,20729,WOO42NNE,Woodland Av & 42nd St,39.946675,-75.207121,Elmwood
-75.1641509999999,39.972116,602,15,Westbound,36,21006,GIR17TWE,Girard Av & 17th St,39.972116,-75.164151,Callowhill
-75.233888,39.9299940000001,603,13,Eastbound,17,20785,KIN62NNE,Kingsessing Av & 62nd St,39.929994,-75.233888,Elmwood
-75.134485,39.964812,604,15,Westbound,20,24039,FRADELSO,Frankford Av & Delaware Av,39.964812,-75.134485,Callowhill
-75.2470089999999,39.9836970000001,605,10,Eastbound,2,20610,MAL63RSW,Malvern Av & 63rd St,39.983697,-75.247009,Callowhill
-75.2266,39.9771860000001,606,10,Westbound,26,20681,LAN52NNW,Lancaster Av & 52nd St,39.977186,-75.2266,Callowhill
-75.279078,39.952976,607,102,Eastbound,20,15344,CONSTANE,Congress Av Station,39.952976,-75.279078,Victory
-75.225456,39.9477150000001,608,34,Westbound,43,20868,BAL51SEA,Baltimore Av & 51st St,39.947715,-75.225456,Elmwood
-75.219503,39.948312,609,34,Eastbound,28,20870,BALFLOEA,Baltimore Av & Florence Av,39.948312,-75.219503,Elmwood
-75.2389879999999,39.970039,610,15,Westbound,63,21040,GIR60TWE,Girard Av & 60th St,39.970039,-75.238988,Callowhill
-75.229191,39.929282,611,11,Westbound,26,20750,WOO61SSW,Woodland Av & 61st St,39.929282,-75.229191,Elmwood
-75.2570899999999,39.91815,612,11,Westbound,45,20767,MAISUMWE,Main St & Summit St,39.91815,-75.25709,Elmwood
-75.203333,39.949533,613,36,Eastbound,40,20804,40TPORNE,40th St Trolley Portal,39.949533,-75.203333,Elmwood
-75.223875,39.9267390000001,614,36,Eastbound,22,20945,ELMEDGNE,Elmwood Av & Edgewood St,39.926739,-75.223875,Elmwood
-75.289148,39.9486680000001,615,102,Eastbound,17,18628,IRVSTANE,Irvington Rd Station,39.948668,-75.289148,Victory
-75.120762,39.975462,616,15,Eastbound,51,22033,ARAYORNE,Aramingo Av & York St - FS,39.975462,-75.120762,Callowhill
-75.237763,39.9464310000001,617,34,Eastbound,10,20893,BAL57TWE,Baltimore Av & 57th St,39.946431,-75.237763,Elmwood
-75.217598,39.9374380000001,618,11,Westbound,19,20743,WOO53RSW,Woodland Av & 53rd St,39.937438,-75.217598,Elmwood
-75.203333,39.949533,619,34,Eastbound,36,20804,40TPORNE,40th St Trolley Portal,39.949533,-75.203333,Elmwood
-75.221556,39.9405770000001,620,13,Eastbound,27,20795,CHE53RNE,Chester Av & 53rd St,39.940577,-75.221556,Elmwood
-75.162559,39.9525320000001,621,36,Westbound,1,283,JUNSTANO,13th St Trolley Station,39.952532,-75.162559,Elmwood
-75.210839,39.943245,622,11,Eastbound,35,20958,WOO47TNE,Woodland Av & 47th St,39.943245,-75.210839,Elmwood
-75.175384,39.9723900000001,623,15,Eastbound,26,21075,COL24TEA,College Av & 24th St - FS,39.97239,-75.175384,Callowhill
-75.2020209999999,39.9572590000001,624,11,Eastbound,40,21248,40TMARSO,40th St & Market St,39.957259,-75.202021,Elmwood
-75.23837,39.9228170000001,625,11,Westbound,33,20756,WOO68TSW,Woodland Av & 68th St,39.922817,-75.23837,Elmwood
-75.1894379999999,39.955406,626,10,Eastbound,33,21445,33RMARNO,33rd St & Market St,39.955406,-75.189438,Callowhill
-75.237428,39.9173270000001,627,36,Westbound,39,20916,ELM70TSW,Elmwood Av & 70th St,39.917327,-75.237428,Elmwood
-75.2335219999999,39.9474420000001,628,34,Eastbound,8,20891,BAL55TWE,Baltimore Av & 55th St,39.947442,-75.233522,Elmwood
-75.181969,39.9742860000001,629,15,Eastbound,21,21069,GIR28TEA,Girard Av & 28th St,39.974286,-75.181969,Callowhill
-75.228803,39.9710410000001,630,15,Eastbound,8,21053,GIR54TEA,Girard Av & 54th St,39.971041,-75.228803,Callowhill
-75.2623169999999,39.91904,631,11,Westbound,47,305,DARTRA1,Darby Transportation Center - trolley,39.91904,-75.262317,Elmwood
-75.260053,39.9180910000001,632,11,Eastbound,2,24568,MAIMISEA,Main St & Mill St,39.918091,-75.260053,Elmwood
-75.2342849999999,39.9704600000001,633,15,Eastbound,6,21050,GIR57TEA,Girard Av & 57th St,39.97046,-75.234285,Callowhill
-75.2925749999999,39.947012,634,101,Eastbound,26,1955,DRXSTANE,Drexel Hill Junction Station - FS,39.947012,-75.292575,Victory
-75.183622,39.9744860000001,635,15,Eastbound,20,21068,GIR29TEA,Girard Av & 29th St,39.974486,-75.183622,Callowhill
-75.2020209999999,39.9572590000001,636,34,Eastbound,38,21248,40TMARSO,40th St & Market St,39.957259,-75.202021,Elmwood
-75.240403,39.9038550000001,637,36,Westbound,48,20923,ISLLINSO,Island Av & Lindbergh Blvd - FS,39.903855,-75.240403,Elmwood
-75.221404,39.9481010000001,638,34,Westbound,46,600,BAL49TEA,Baltimore Av & 49th St,39.948101,-75.221404,Elmwood
-75.162559,39.9525320000001,639,10,Westbound,1,283,JUNSTANO,13th St Trolley Station,39.952532,-75.162559,Callowhill
-75.1833609999999,39.9745740000001,640,15,Westbound,46,21019,GIR29TWE,Girard Av & 29th St,39.974574,-75.183361,Callowhill
-75.227671,39.924157,641,36,Westbound,32,20909,ELM63RSW,Elmwood Av & 63rd St,39.924157,-75.227671,Elmwood
-75.2434969999999,39.975615,642,10,Westbound,35,20691,LAN62NWE,Lansdowne Av & 62nd St,39.975615,-75.243497,Callowhill
-75.176571,39.954051,643,13,Westbound,4,20661,MA22WEU,22nd St Trolley Station,39.954051,-75.176571,Elmwood
-75.2020209999999,39.9572590000001,644,36,Westbound,9,21248,40TMARSO,40th St & Market St,39.957259,-75.202021,Elmwood
-75.2343959999999,39.9254790000001,645,11,Eastbound,18,20712,WOO65TNE,Woodland Av & 65th St,39.925479,-75.234396,Elmwood
-75.2426609999999,39.911186,646,36,Eastbound,6,20930,ISLBUINW,Island Av & Buist Av,39.911186,-75.242661,Elmwood
-75.295136,39.9351,647,102,Eastbound,12,15339,CRESTANO,Creek Rd Station - FS,39.9351,-75.295136,Victory
-75.273131,39.9558960000001,648,101,Westbound,5,18598,HILSTASW,Hilltop Rd Station - FS,39.955896,-75.273131,Victory
-75.315955,39.9471060000001,649,101,Eastbound,21,18625,DXBSTANE,Drexelbrook Station - FS,39.947106,-75.315955,Victory
-75.119765,39.976611,650,15,Westbound,13,17787,ARACUMSW,Aramingo Av & Cumberland St,39.976611,-75.119765,Callowhill
-75.242744,39.9111950000001,651,36,Westbound,45,20920,ISLBUISO,Island Av & Buist Av - FS,39.911195,-75.242744,Elmwood
-75.2273089999999,39.947842,652,34,Eastbound,5,20888,BAL52NWE,Baltimore Av & 52nd St,39.947842,-75.227309,Elmwood
-75.244429,39.9442990000001,653,34,Eastbound,15,20859,BAL60TNE,Baltimore Av & 60th St,39.944299,-75.244429,Elmwood
-75.203333,39.9495950000001,654,36,Westbound,10,301,40TPORSW,40th St Trolley Portal,39.949595,-75.203333,Elmwood
-75.2445979999999,39.970226,655,15,Westbound,67,21044,GIR63REA,Girard Av & 63rd St - MBFS,39.970226,-75.244598,Callowhill
-75.2117279999999,39.9419530000001,656,11,Eastbound,34,20726,WOO48TNE,Woodland Av & 48th St,39.941953,-75.211728,Elmwood
-75.2740659999999,39.9553260000001,657,101,Eastbound,31,18630,BEVSTANE,Beverly Blvd Station,39.955326,-75.274066,Victory
-75.206268,39.9739660000001,658,15,Westbound,52,21026,GIR41SWE,Girard Av & 41st St,39.973966,-75.206268,Callowhill
-75.212682,39.946827,659,13,Eastbound,33,20799,CHE46TNE,Chester Av & 46th St,39.946827,-75.212682,Elmwood
-75.240153,39.9759760000001,660,10,Westbound,33,20689,LAN60TWE,Lansdowne Av & 60th St,39.975976,-75.240153,Callowhill
-75.2098779999999,39.967725,661,10,Eastbound,23,20632,LAN43TSE,Lancaster Av & 43th St,39.967725,-75.209878,Callowhill
-75.155816,39.970965,662,15,Eastbound,34,21086,GIR12TEA,Girard Av & 12th St,39.970965,-75.155816,Callowhill
-75.236927,39.923689,663,11,Eastbound,16,20710,WOO67TNE,Woodland Av & 67th St,39.923689,-75.236927,Elmwood
-75.3336449999999,39.928772,664,101,Westbound,20,15355,SAXSTASW,Saxer Av Station,39.928772,-75.333645,Victory
-75.2329109999999,39.920327,665,36,Eastbound,15,20938,ELM67TNE,Elmwood Av & 67th St,39.920327,-75.232911,Elmwood
-75.205658,39.949885,666,34,Westbound,12,20878,BAL41SWE,Baltimore Av & 41st St,39.949885,-75.205658,Elmwood
-75.225266,39.9478300000001,667,34,Westbound,23,20887,BAL51TWE,Baltimore Av & 51st St,39.94783,-75.225266,Elmwood
-75.20834,39.945767,668,11,Westbound,12,20737,WOO43RSW,Woodland Av & 43rd St,39.945767,-75.20834,Elmwood
-75.2162969999999,39.938203,669,11,Eastbound,30,20723,WOO52NNE,Woodland Av & 52nd St,39.938203,-75.216297,Elmwood
-75.223438,39.9719870000001,670,15,Westbound,57,21032,GIR51SWE,Girard Av & 51st St,39.971987,-75.223438,Callowhill
-75.240781,39.970899,671,15,Westbound,64,21041,HAV61SNW,Haverford Av & 61st St,39.970899,-75.240781,Callowhill
-75.2136819999999,39.936128,672,36,Westbound,22,20899,GRALINSW,Grays Av & Lindbergh Blvd,39.936128,-75.213682,Elmwood
-75.1690869999999,39.9726360000001,673,15,Eastbound,28,21079,GIR20TEA,Girard Av & 20th St,39.972636,-75.169087,Callowhill
-75.22385,39.9269350000001,674,36,Westbound,29,20906,ELMEDGSW,Elmwood Av & Edgewood Av,39.926935,-75.22385,Elmwood
-75.3258719999999,39.9407340000001,675,101,Eastbound,19,1953,SCESTANE,Scenic Rd Station,39.940734,-75.325872,Victory
-75.162559,39.9525320000001,676,11,Eastbound,48,283,JUNSTANO,13th St Trolley Station,39.952532,-75.162559,Elmwood
-75.189676,39.9548800000001,677,13,Westbound,6,20658,33MAWEU,33rd St Trolley Station,39.95488,-75.189676,Elmwood
-75.103084,39.984601,678,15,Eastbound,60,21114,RICALLNE,Thompson St & Allegheny Av - detour,39.984601,-75.103084,Callowhill
-75.206945,39.9498610000001,679,34,Westbound,13,20879,BAL42NWE,Baltimore Av & 42nd St,39.949861,-75.206945,Elmwood
-75.194113,39.956058,680,10,Westbound,9,20664,36TMARNO,36th St & Market St,39.956058,-75.194113,Callowhill
-75.208975,39.9735420000001,681,15,Eastbound,14,21061,GIR42NEA,Girard Av & 42nd St,39.973542,-75.208975,Callowhill
-75.241899,39.9451970000001,682,34,Westbound,35,20860,BAL59TNE,Baltimore Av & 59th St,39.945197,-75.241899,Elmwood
-75.219101,39.948472,683,34,Westbound,19,20885,BAL48TWE,Baltimore Av & 48th St,39.948472,-75.219101,Elmwood
-75.296611,39.942205,684,102,Westbound,13,15326,DXMSTASO,Drexel Manor Station - MBFS,39.942205,-75.296611,Victory
-75.1967329999999,39.974841,685,15,Eastbound,18,30292,GIR34TEA,Girard Av & 34th St - MBNS,39.974841,-75.196733,Callowhill
-75.24148,39.920483,686,11,Eastbound,13,20707,WOO7OTNE,Woodland Av & 70th St,39.920483,-75.24148,Elmwood
-75.229317,39.947846,687,34,Eastbound,6,20889,BAL53RWE,Baltimore Av & 53rd St,39.947846,-75.229317,Elmwood
-75.231782,39.9273140000001,688,11,Eastbound,20,20714,WOO63RNE,Woodland Av & 63rd St,39.927314,-75.231782,Elmwood
-75.2869489999999,39.949709,689,102,Eastbound,18,18629,DRESTANE,Drexel Park Station,39.949709,-75.286949,Victory
-75.3261199999999,39.940752,690,101,Westbound,18,30607,SCESTASW,Scenic Rd Station,39.940752,-75.32612,Victory
-75.2069069999999,39.946987,691,36,Westbound,15,20736,WOO42NSW,Woodland Av & 42nd St,39.946987,-75.206907,Elmwood
-75.2427039999999,39.971642,692,15,Westbound,65,21042,HAV62NWE,Haverford Av & 62nd St,39.971642,-75.242704,Callowhill
-75.235519,39.946936,693,34,Eastbound,9,20892,BAL56TWE,Baltimore Av & 56th St,39.946936,-75.235519,Elmwood
-75.3371539999999,39.926267,694,101,Eastbound,16,18622,LEASTANE,Leamy Av Station - FS,39.926267,-75.337154,Victory
-75.221404,39.9481010000001,695,34,Westbound,45,600,BAL49TEA,Baltimore Av & 49th St,39.948101,-75.221404,Elmwood
-75.1106389999999,39.980667,696,15,Eastbound,56,21110,RICCAMNE,Thompson St & Cambria St - detour,39.980667,-75.110639,Callowhill
-75.2369629999999,39.927982,697,13,Westbound,32,20826,65TKINSW,Kingsessing Av & 65th St,39.927982,-75.236963,Elmwood
-75.215197,39.938987,698,11,Eastbound,31,20724,WOO51SNE,Woodland Av & 51st St,39.938987,-75.215197,Elmwood
-75.217188,39.94854,699,34,Eastbound,29,20871,BAL47TEA,Baltimore Av & 47th St,39.94854,-75.217188,Elmwood
-75.1036109999999,39.9855220000001,700,15,Westbound,4,4355,ALLALMNW,Allegheny Av & Almond St,39.985522,-75.103611,Callowhill
-75.231858,39.976811,701,10,Eastbound,13,20622,LAN55TEA,Lansdowne Av & 55th St,39.976811,-75.231858,Callowhill
-75.194533,39.953854,702,34,Eastbound,40,20732,36SANOU,36th St Trolley Station,39.953854,-75.194533,Elmwood
-75.221958,39.9282260000001,703,36,Westbound,28,20905,ELM59TSW,Elmwood Av & 59th St,39.928226,-75.221958,Elmwood
-75.2155789999999,39.933588,704,36,Westbound,24,20901,LIN54TSW,Lindbergh Blvd & 54th St,39.933588,-75.215579,Elmwood
-75.246342,39.9439630000001,705,34,Westbound,33,599,ANGLOOWE,Baltimore Av & 61st St Angora Loop,39.943963,-75.246342,Elmwood
-75.257482,39.9220500000001,706,13,Eastbound,4,20771,9THSUINE,9th St & Summit Av - MBFS,39.92205,-75.257482,Elmwood
-75.244762,39.929359,707,13,Eastbound,12,20779,CHE65TNO,Chester Av & 65th St,39.929359,-75.244762,Elmwood
-75.358036,39.9154280000001,708,101,Westbound,25,20024,PAPSTAWE,Paper Mill Rd Station,39.915428,-75.358036,Victory
-75.176571,39.954051,709,34,Westbound,4,20661,MA22WEU,22nd St Trolley Station,39.954051,-75.176571,Elmwood
-75.134338,39.966008,710,15,Eastbound,46,23992,FRARICNO,Frankford Av & Richmond St,39.966008,-75.134338,Callowhill
-75.2373269999999,39.9463860000001,711,34,Westbound,37,20862,BAL57TNE,Baltimore Av & 57th St,39.946386,-75.237327,Elmwood
-75.235602,39.946785,712,34,Eastbound,19,20863,BAL56TNE,Baltimore Av & 56th St,39.946785,-75.235602,Elmwood
-75.2727179999999,39.955967,713,101,Eastbound,32,18631,HILSTANE,Hilltop Rd Station - FS,39.955967,-75.272718,Victory
